No.,사업체고유번호,사업자등록번호,법인등록번호,행정구역분류부호,사업체명,대표자명,소재지_도로명_읍면,소재지_도로명_도로명,소재지_도로명_본번,소재지_도로명_부번,소재지_도로명_빌딩명,소재지_도로명_빌딩동,소재지_도로명_빌딩층,소재지_도로명_빌딩호,소재지_도로명_도로명코드,소재지_도로명_우편번호,소재지_지번_읍면동,소재지_지번_리,소재지_지번_번지,소재지_지번_호,소재지_지번_통,소재지_지번_반,소재지_지번_공단,소재지_지번_블록,소재지_지번_로트,광역,상세주소,Latitude,Longitude,좌표_위도,좌표_경도,업종대분류_임시,업종중분류_임시,전화번호_지역번호,전화번호_국번호,전화번호_일련번호,주요_16개_도/시_전화번호,TEL,HP,팩스번호,산업분류_표준산업분류대분류,산업분류_표준산업분류중분류,산업분류_표준산업분류소분류,산업분류_표준산업분류세분류,산업분류_표준산업분류세세분류,산업분류_자체업종코드,조직형태,사업체구분,종사자수_2022,종사자수_2023,종사자수_2024,설립일자_연,설립일자_월,설립일자_일,설립일자_개업일,설립일자_인허가일,홈페이지,제품_주생산품,제품_판매방식,재무2021_매출액(국내),재무2021_매출액(해외),재무2022_회계연도,재무2022_결산월,재무2022_매출액,재무2022_매출액(국내),재무2022_매출액(해외),재무2022_순이익,재무2022_자본금,재무2022_영업이익,합계2022_자산,합계2022_자본,합계2022_부채,재무2023_자본,재무2023_부채,재무2023_매출,재무2023_수출,재무2023_연구개발,재무2023_매출액(국내),재무2023_매출액(해외),대표중견기업,저작권,이메일,기업상장,특허_국내,특허_해외,회사규모,R&D조직형태,벤처기업지정,SW사업자등록,출처,수집년도,latitude,longitude
278084,,,,,(주)구일기공,김성인,,,,,,,,,,,,,,,,,,,,울산,북구 진장동 21블럭10-1롯트,35.5667408,129.3584499,,,,,,,,,0522748222,,522747223.0,,전문직별 공사업,,,42201.0,,일반,,5.0,,,1997.0,10.0,20.0,,,,가스설비 공사업 철물 공사업 건축 공사업,,,,2015.0,,1096.0,,,,,,814.0,,,,,,,,,,,,,,,,,,,,조사모집단통합자료,2022,,
278085,,1348683424.0,,,(주)국민차매매단지,최봉진,,,,,,,,,,우) 44247,,,,,,,,,,울산,북구 무룡로 64(연암동),35.5786236,129.3770051,,,,,,,,,03180257873,,322211501.0,금융 및 보험업,금융 및 보험관련 서비스업,,,66199.0,,외감,,1.0,,,2011.0,11.0,25.0,,,,중고자동차할부금융 대행,,,,2020.0,12.0,1250.0,,,-3913.0,1000.0,-945.0,58352.0,-4965.0,63317.0,,,,,,,,,,,,,,,,,,조사모집단통합자료,2022,,
275498,,,,,(주)뉴테크,박정홍,,,,,,,,,,,,,,,,,,,,울산,북구 명촌동 진장.명촌토지구획정리지구내 108블럭 4-1노트,35.5489515,129.3646721,,,,,,,,,0522886330,,522886333.0,,"의료, 정밀, 광학 기기 및 시계 제조업",,,27216.0,,일반,,8.0,,,2000.0,10.0,13.0,,,www.global-newtech.com,공장자동화설비 생산지시시스템 설비현황관리시스템 전산네트워크 생산지시시스템 제조업 이종방지시스템 제조업 생산관리시스템 제조업 네트웍시스템 제조업,,,,2020.0,,2363.0,,,,,,3654.0,,,,,,,,,,,,,,,,,,,,기업체총람,2022,,
278180,,,,,(주)대명기술,김기춘,,,,,,,,,,우) 44744,,,,,,,,,,울산,남구 신남로29번길 6-11,35.5247585,129.3134317,,,,,,,,,0522587141,,522587144.0,,전문직별 공사업,,,42202.0,,일반,,,,,2007.0,6.0,1.0,,,,"기계설비 공사,철구조물 제조,인력공급",,,,2017.0,,1671.0,,,,,,1155.0,,,,,,,,,,,,,,,,,,,,조사모집단통합자료,2022,,
273913,,,,,(주)대성실업,손덕선,,,,,,,,,,우) 44780,,,,,,,,,,울산,남구 장생포고래로197번길 11-2,35.5027501,129.3767142,,,,,,,,,0522590428,,,,창고 및 운송관련 서비스업,,,52941.0,,일반,,2.0,,,2014.0,1.0,15.0,,,,화물 상하차,,,,2016.0,,1024.0,,,,,,437.0,,,,,,,,,,,,,,,,,,,,기업체총람,2022,,
278227,,,,,(주)대하마트,이철호,,,,,,,,,,우) 44940,,,,,,,,,,울산,울주군 언양읍 남부리 82-1번지 1층,35.5628025,129.1288266,,,,,,,,,0527105777,,527105778.0,,소매업; 자동차 제외,,,47121.0,,일반,,46.0,,,1999.0,11.0,27.0,,,,,,,,,,,,,,,,,,,,,,,,,,,,,,,,,,,,조사모집단통합자료,2022,,
278256,,8938101981.0,,,(주)덕양가스,이치윤,,,,,,,,,,,,,,,,,,,,울산,북구 농공단지2길 (달천동),35.6372656,129.3162815,,,,,,,,,0522828100,,522829100.0,제조업,화학 물질 및 화학제품 제조업; 의약품 제외,,,20121.0,,외감,,137.0,,,2020.0,11.0,3.0,,,,,,,,2020.0,,9811.0,,,266.0,400.0,368.0,31444.0,11177.0,20267.0,,,,,,,,,,,,,,,,,,조사모집단통합자료,2022,,
273960,,,,,(주)동녘,김승우,,,,,,,,,,우) 44686,,,,,,,,,,울산,"남구 월평로171번길 26, 106-1호",35.5473995,129.3232155,,,,,,,,,0522660800,,529354988.0,,부동산업,,,68221.0,,일반,,5.0,,,2010.0,12.0,17.0,,,www.dongnyok.co.kr/,"주거용,비주거용 부동산 분양대행,개발,공급",,,,,,,,,,,,,,,,,,,,,,,,,,,,,,,,기업체총람,2022,,
278339,,,,,(주)디엠테크윈,임채현,,,,,,,,,,우) 44712,,,,,,,,,,울산,"남구 돋질로408번길 10, 1.2동",35.5419251,129.3490831,,,,,,,,,0522821461,,522821460.0,,도매 및 상품 중개업,,,46595.0,,일반,,3.0,,,2015.0,12.0,10.0,,,,"전기통신자재(특수케이블) 도소매,배전,분전 제조,부동산 임대",,,,,,,,,,,,884.0,,,,,,,,,,,,,,,,,,,,조사모집단통합자료,2022,,
278359,,,,,(주)리테크,이원수,,,,,,,,,,우) 44252,,,,,,,,,,울산,"북구 산성로 40, 905-1호",35.5677644,129.3682541,,,,,,,,,0522853760,,522853761.0,,기타 운송장비 제조업,,,31112.0,,일반,,1.0,,,2012.0,3.0,15.0,,,,합성수지선 건조,,,,2015.0,,1858.0,,,,,,,,,,,,,,,,,,,,,,,,,,조사모집단통합자료,2022,,
278363,,,,,(주)마바산업,구효정,,,,,,,,,,우) 44252,,,,,,,,,,울산,"북구 산성로 40, 907-1호",35.5677644,129.3682541,,,,,,,,,0522882133,,522882136.0,,고무 및 플라스틱제품 제조업,,,22292.0,,일반,,42.0,,,2015.0,1.0,22.0,,,MABADESIGN.CO.KR,"자동차용데칼(접착용필름),차체,특장차 제조,도매,무역,중개,부동산 임대,전문디자인",,,,2020.0,,6840.0,,,,,,8038.0,,,,,,,,,,,,,,,,,,,,조사모집단통합자료,2022,,
278534,,,,,(주)서영하우징,권오경,,,,,,,,,,우) 44250,,,,,,,,,,울산,북구 진장18길 1 외 1필지 (진장동),35.5653889,129.3548552,,,,,,,,,0522251000,,522681107.0,,도매 및 상품 중개업,,,46699.0,,일반,,8.0,,,2004.0,8.0,3.0,,,www.seo-young.net,바닥재 外 내장재 바닥재 등 건축자재 목재류 바닥재 등 건축자재 내장재 석고보드 목재류 건축자재 판매 및 제조업 건축자재 도소매,,,,2016.0,,3326.0,,,,,,2410.0,,,,,,,,,,,,,,,,,,,,조사모집단통합자료,2022,,
278548,,,,,(주)석정건설,이미경,,,,,,,,,,우) 45013,,,,,,,,,,울산,"울주군 서생면 약수터길 19, 102-1호",35.3835829,129.3391841,,,,,,,,,0552530356,,552530357.0,,전문직별 공사업,,,,,일반,,,,,2007.0,5.0,7.0,,,,토목시설물건설관련업,,,,2015.0,,1727.0,,,,,,,,,,,,,,,,,,,,,,,,,,조사모집단통합자료,2022,,
274127,,,,,(주)선진창호,홍순근,,,,,,,,,,우) 44712,,,,,,,,,,울산,남구 산업로 671 (삼산동),35.5427415,129.3447049,,,,,,,,,0522895800,,522715804.0,,고무 및 플라스틱제품 제조업,,,22223.0,,일반,,11.0,,,2003.0,7.0,31.0,,,,"PVC창호 제조,창호공사",,,,2014.0,,1756.0,,,,,,1384.0,,,,,,,,,,,,,,,,,,,,기업체총람,2022,,
276575,,,,,(주)신안,전희술,,,,,,,,,,,,,,,,,,,,울산,울주군 온산읍 우봉길 35 (우봉리),35.4032959,129.3546231,,,,,,,,,0522405584,,522371041.0,,기타 운송장비 제조업,,,31114.0,,일반,,5.0,,,2007.0,4.0,2.0,,,,선박기자재 선박도장 선박 건조 선박기자재 제조 선박도장,,,,,,,,,,,,,,,,,,,,,,,,,,,,,,,,기업체총람,2022,,
278692,,,,,(주)씨앤지메디컬,최기용,,,,,,,,,,우) 44252,,,,,,,,,,울산,"북구 산성로 40, 601,602호",35.5677644,129.3682541,,,,,,,,,0522727677,,522723444.0,,"의료, 정밀, 광학 기기 및 시계 제조업",,,27199.0,,일반,,,,,2014.0,12.0,17.0,,,,"의료용기기 제조,소매",,,,2020.0,,183.0,,,,,,407.0,,,,,,,,,,,,,,,,,,,,조사모집단통합자료,2022,,
276605,,,,,(주)씨에이치테크,김종윤,,,,,,,,,,,,,,,,,,,,울산,울주군 온양읍 내광리 지더블유일반산업단지 10블럭 5로트,35.4285863,129.2170557,,,,,,,,,0522698347,,522698348.0,,금속 가공제품 제조업; 기계 및 가구 제외,,,,,일반,,8.0,,,2016.0,11.0,18.0,,,,,,,,,,,,,,,,3206.0,,,,,,,,,,,,,,,,,,,,기업체총람,2022,,
278790,,6208147507.0,,,(주)엘라,조정석,,,,,,,,,,우) 44713,,,,,,,,,,울산,"남구 삼산로 303, 상가 102-1, 2, 3",35.5402567,129.3400914,,,,,,,,,0522699088,,522699089.0,부동산업,부동산업,,,68121.0,,외감,,2.0,,,2013.0,2.0,25.0,,,,,,,,2019.0,12.0,396.0,,,-3069.0,520.0,-1090.0,27138.0,-8848.0,35986.0,,,,,,,,,,,,,,,,,,조사모집단통합자료,2022,,
278800,,,,,(주)엠에이치에스,이종순,,,,,,,,,,우) 44256,,,,,,,,,,울산,"북구 명촌동 899-5번지, 120비6엘",35.551154,129.3558002,,,,,,,,,0522766647,,522766648.0,,금속 가공제품 제조업; 기계 및 가구 제외,,,25921.0,,일반,,35.0,,,2008.0,7.0,31.0,,,www.mhs1072.com,금속 열처리,,,,2017.0,,2907.0,,,,,,1157.0,,,,,,,,,,,,,,,,,,,,조사모집단통합자료,2022,,
279011,,,,,(주)정우유통,엄정우,,,,,,,,,,우) 44632,,,,,,,,,,울산,"남구 북부순환도로 17, 1001-1호",35.5517231,129.265377,,,,,,,,,0522568997,,522568918.0,,도매 및 상품 중개업,,,46311.0,,일반,,4.0,,,2003.0,11.0,4.0,,,,육류조제수프및균질화식품 육류도매업 식자재(농산물) 식료품 도매,,,,2015.0,,796.0,,,,,,,,,,,,,,,,,,,,,,,,,,조사모집단통합자료,2022,,
276952,,,,,(주)태영전기,안영희,,,,,,,,,,우) 45014,,,,,,,,,,울산,"울주군 서생면 에너지산업1로 45, 6블럭-4(에너지융합일반산업단지)",35.35272,129.3193349,,,,,,,,,0522850301,,522850302.0,,전문직별 공사업,,,42311.0,,일반,,5.0,,,2002.0,6.0,14.0,,,,전기공사,,,,2017.0,,2558.0,,,,,,,,,,,,,,,,,,,,,,,,,,기업체총람,2022,,
274563,,,,,(주)태웅정보서비스시스템,황웅경,,,,,,,,,,우) 44632,,,,,,,,,,울산,"남구 북부순환도로 17, 1006-1호",35.5517231,129.265377,,,,,,,,,0522492735,,522232735.0,,"컴퓨터 프로그래밍, 시스템 통합 및 관리업",,,62021.0,,일반,,9.0,,,2001.0,6.0,12.0,,,www.goodinfocar.com,"시스템구축및관리,네트웍구축",,,,2015.0,,892.0,,,,,,,,,,,,,,,,,,,,,,,,,,기업체총람,2022,,
274603,,,,,(주)평강개발,김반석,,,,,,,,,,우) 44761,,,,,,,,,,울산,"남구 여천로5번길 28-2, 관리동 102호",35.5248771,129.3333973,,,,,,,,,07082884919,,,,부동산업,,,68112.0,,일반,,,,,2010.0,12.0,22.0,,,,"부동산 임대,매매,일반건축공사,주택신축판매,의류 도소매",,,,2017.0,,18.0,,,,,,6889.0,,,,,,,,,,,,,,,,,,,,기업체총람,2022,,
274630,,6108119493.0,,,(주)한림이앤씨건축사사무소,윤찬중,,,,,,,,,,우) 44632,,,,,,,,,,울산,"남구 북부순환도로 17, 1605(무거동, 남운프라자)",35.5517231,129.265377,,,,,,,,,0522770163,,522770168.0,"전문, 과학 및 기술 서비스업","건축 기술, 엔지니어링 및 기타 과학기술 서비스업",,,72111.0,,외감,,254.0,,,1994.0,8.0,1.0,,,www.hanlimeng.com,건축설계 설계감리 설계서비스 종합감리서비스 건축설계 감리 전기 소방 감리,,,,2020.0,12.0,21679.0,,,3029.0,600.0,3891.0,18229.0,17959.0,270.0,,,,,,,,,,,,,,,,,,기업체총람,2022,,
275873,,,,,(주)현우종합운수,이한우,,,,,,,,,,우) 44249,,,,,,,,,,울산,"북구 진장유통로 15, 109-1호",35.571737,129.3548369,,,,,,,,,0522571412,,522571413.0,,육상 운송 및 파이프라인 운송업,,,49301.0,,일반,,10.0,,,1998.0,11.0,20.0,,,,"도로화물운송 운송주선 일반 화물자동차 운송업 화물운송,화물알선",,,,2015.0,,649.0,,,,,,1007.0,,,,,,,,,,,,,,,,,,,,기업체총람,2022,,
279487,,,,,뉴모드(주),윤세영,,,,,,,,,,,,,,,,,,,,울산,북구 진장동 26블럭 5로트,35.5667408,129.3584499,,,,,,,,,0522690989,,522600959.0,,도매 및 상품 중개업,,,46622.0,,일반,,7.0,,,2004.0,12.0,1.0,,,,철물 공구 등 철물 공구 등 철물 공구 등,,,,2013.0,,4875.0,,,,,,,,,,,,,,,,,,,,,,,,,,조사모집단통합자료,2022,,
279515,,,,,대림항업(주),이소영,,,,,,,,,,우) 44780,,,,,,,,,,울산,남구 장생포동 325번지,35.5041523,129.3690962,,,,,,,,,0522660116,,522690116.0,,도매 및 상품 중개업,,,46594.0,,일반,,27.0,,,1998.0,2.0,4.0,,,www.daelimmarine.co.kr,선식 선박안전설비수리 선박용품 방수복 선형품선식 선식 선용품 도소매 선박안전설비(기계부품) 수리 선박 구성부분품 제조업,,,,2017.0,,6000.0,,,,,,,,,,,,,,,,,,,,,,,,,,조사모집단통합자료,2022,,
279561,,,,,대협종합건설(주),신성호,,,,,,,,,,우) 44658,,,,,,,,,,울산,"남구 봉월로 35, 2층",35.5355531,129.3060601,,,,,,,,,0543736275,,543736274.0,,종합 건설업,,,41220.0,,일반,,8.0,,,2004.0,3.0,4.0,,,,토목공사,,,,,,,,,,,,3489.0,,,,,,,,,,,,,,,,,,,,조사모집단통합자료,2022,,
279614,,,,,두성기전(주),한우구,,,,,,,,,,,,,,,,,,,,울산,남구 웅촌로 1347 (무거동),35.548306,129.2747904,,,,,,,,,0522479453,,522242505.0,,전문직별 공사업,,,42312.0,,일반,,9.0,,,1993.0,8.0,5.0,,,,전기공사 전기공사 판넬 도매업 계장 도매업 계기 도매업,,,,2014.0,,8705.0,,,,,,3702.0,,,,,,,,,,,,,,,,,,,,조사모집단통합자료,2022,,
277889,,,,,두진건설(주),김석준,,,,,,,,,,우) 44533,,,,,,,,,,울산,"중구 중앙길 21, 3층 (우정동)",35.5538173,129.3153131,,,,,,,,,0522435511,,522430022.0,,전문직별 공사업,,,42201.0,,일반,,5.0,,,1988.0,4.0,1.0,,,,"상하수도설비공사,철근콘크리트공사,건축공사",,,,2014.0,,18.0,,,,,,1287.0,,,,,,,,,,,,,,,,,,,,기업체총람,2022,,
275967,,,,,무진산업(주),임정숙,,,,,,,,,,,,,,,,,,,,울산,북구 호계동 5-9번지,35.6288727,129.3643009,,,,,,,,,0522890406,,522830239.0,,자동차 및 트레일러 제조업,,,30399.0,,일반,,49.0,,,2009.0,5.0,1.0,,,,자동차부품 제조,,,,,,,,,,,,4065.0,,,,,,,,,,,,,,,,,,,,기업체총람,2022,,
277258,,,,,미광건설(주),정명준,,,,,,,,,,,,,,,,,,,,울산,울주군 범서읍 천상리32블럭 4롯트,35.5671662,129.2340556,,,,,,,,,0522253310,,522251033.0,,전문직별 공사업,,,42132.0,,일반,,6.0,,,1996.0,12.0,1.0,,,,토목 건축공사업,,,,2020.0,,454.0,,,,,,853.0,,,,,,,,,,,,,,,,,,,,기업체총람,2022,,
277284,,,,,비에스티(주),홍용표,,,,,,,,,,,,,,,,,,,,울산,울주군 언양읍 반천리 14블럭 2로트,35.5634697,129.1863564,,,,,,,,,0522647500,,,,자동차 및 트레일러 제조업,,,30399.0,,일반,,10.0,,,2014.0,12.0,3.0,,,,"자동차부품,금속조립가공,레이저가공 제조,강관 도소매",,,,,,,,,,,,5720.0,,,,,,,,,,,,,,,,,,,,기업체총람,2022,,
279773,,,,,성한종합건설(주),문건주,,,,,,,,,,우) 44670,,,,,,,,,,울산,"남구 봉월로 108, 4층",35.5419604,129.3063572,,,,,,,,,05227483356,,522741990.0,,종합 건설업,,,41100.0,,일반,,8.0,,,2013.0,5.0,7.0,,,,건축공사,,,,2016.0,,1350.0,,,,,,902.0,,,,,,,,,,,,,,,,,,,,조사모집단통합자료,2022,,
279798,,,,,소양약품(주),김윤건,,,,,,,,,,,,,,,,,,,,울산,"중구 화합로 463, 1층",35.560146,129.3377865,,,,,,,,,0529157180,,529157100.0,,도매 및 상품 중개업,,,46441.0,,일반,,6.0,,,2005.0,10.0,1.0,,,,"의약품,화장품 및 비누 도매업",,,,2017.0,,3154.0,,,,,,2705.0,,,,,,,,,,,,,,,,,,,,조사모집단통합자료,2022,,
279816,,6108104587.0,,,신도여객자동차(주),"김대종,김일균",,,,,,,,,,우) 44959,,,,,,,,,,울산,울주군 청량읍 웅촌로 1263 (율리) 118-2,35.53,129.2464212,,,,,,,,,0522777725,,522777726.0,운수 및 창고업,육상 운송 및 파이프라인 운송업,,,49210.0,,외감,,167.0,,,1980.0,2.0,27.0,,,,시내버스운송 여객 운송업,,,,2020.0,12.0,13603.0,,,-624.0,150.0,-393.0,3729.0,-9390.0,13118.0,,,,,,,,,,,,,,,,,,조사모집단통합자료,2022,,
277928,,,,,신승(주),김장수,,,,,,,,,,,,,,,,,,,,울산,중구 효산2길 12(효문동),35.5704628,129.3726043,,,,,,,,,0522884261,,,,,,,,,외감,,,,,2017.0,12.0,1.0,,,,자동차부품 제조,,,,2020.0,,9457.0,,,,,,2649.0,,,,,,,,,,,,,,,,,,,,기업체총람,2022,,
277369,,,,,에스씨건설(주),신인섭,,,,,,,,,,,,,,,,,,,,울산,울주군 범서읍 천상리 천상구획정리지구 19블럭 5롯트 비동 2층,35.554341,129.2197416,,,,,,,,,0535936066,,522124736.0,,전문직별 공사업,,,42121.0,,일반,,7.0,,,2009.0,2.0,27.0,,,,,,,,,,,,,,,,,,,,,,,,,,,,,,,,,,,,기업체총람,2022,,
276031,,,,,엠코(주),신경식,,,,,,,,,,우) 44222,,,,,,,,,,울산,"북구 매곡산업로 35, 112-2호",35.6496968,129.3649115,,,,,,,,,0522870665,,522870664.0,,기타 기계 및 장비 제조업,,,29299.0,,일반,,5.0,,,2009.0,9.0,10.0,,,,"산업기계,초저온용기,차량개조,엔진부품 제조,도소매,무역",,,,,,,,,,,,,,,,,,,,,,,,,,,,,,,,기업체총람,2022,,
279988,,6208129440.0,,,울산청천(주),정영화,,,,,,,,,,,,,,,,,,,,울산,동구 동해안로 500 (미포동),35.5357476,129.4441568,,,,,,,,,0527072010,,527072013.0,"수도, 하수 및 폐기물 처리, 원료 재생업","하수, 폐수 및 분뇨 처리업",,,37011.0,,외감,,4.0,,,2007.0,10.0,24.0,,,,하수관거정비공사 하수폐기물처리시설공사 건물 건설 진주시 하수관거시설 건설 임대 관리,,,,2020.0,12.0,4301.0,,,-327.0,11425.0,2000.0,68037.0,8643.0,59395.0,,,,,,,,,,,,,,,,,,조사모집단통합자료,2022,,
275044,,2208662341.0,,,유엔씨티(주),김성일,,,,,,,,,,,,,,,,,,,,울산,"남구 용연로 370 (황성동, 울산신항)",35.4748302,129.3599276,,,,,,,,,0522702006,,522702010.0,운수 및 창고업,창고 및 운송관련 서비스업,,,52942.0,,외감,,23.0,,,2003.0,4.0,30.0,,,www.unct.co.kr,"컨테이너화물하역 컨테이너화물운송 울산신항 컨테이너부두의 건설,관리 및 운영 신항개발 민간시설사업에 허용된 부대사업 항만운송 관련 사업 수상화물취급 컨테이너부두 관리",,,,2020.0,12.0,39243.0,,,7842.0,68000.0,12529.0,152726.0,37739.0,114986.0,,,,,,,,,,,,,,,,,,기업체총람,2022,,
275046,,6108125898.0,,,유화산업개발(주),이상찬,,,,,,,,,,우) 44760,,,,,,,,,,울산,남구 번영로16번길 6 (야음동),35.5269839,129.3314683,,,,,,,,,0522715161,,522655794.0,건설업,전문직별 공사업,,,42131.0,,외감,,32.0,,,1996.0,6.0,3.0,,,,"철물공사,금속구조물공사,기계설비공사,전기공사,도장공사,옥외광고,건설자재 도소매",,,,2020.0,12.0,26628.0,,,857.0,1000.0,1124.0,15691.0,9938.0,5753.0,,,,,,,,,,,,,,,,,,기업체총람,2022,,
280215,,,,,플랜테크(주),권재범,,,,,,,,,,우) 44712,,,,,,,,,,울산,남구 삼산동 214번지 6층,35.5410799,129.3504761,,,,,,,,,0522662557,,522662587.0,,"건축 기술, 엔지니어링 및 기타 과학기술 서비스업",,,72129.0,,일반,,9.0,,,2006.0,1.0,2.0,,,www.eplantech.com,"전기 계장설계도서 외 산업용기계,장비 도매 광고 장식용패널제작",,,,2015.0,,844.0,,,,,,566.0,,,,,,,,,,,,,,,,,,,,조사모집단통합자료,2022,,
276098,,,,,한신콤프레샤(주),추민호,,,,,,,,,,우) 44252,,,,,,,,,,울산,"북구 산성로 40, 908-4호",35.5677644,129.3682541,,,,,,,,,0522872556,,522875590.0,,도매 및 상품 중개업,,,46599.0,,일반,,10.0,,,2001.0,11.0,28.0,,,,"공기압축기 공압기기 유압기기 제조 도매 공기압축기,공압기기,유압기기 제조,도매,공기압축기 제조 및 판매업 공압기기 제조 및 판매업 유압기기 제조 및 판매업",,,,,,,,,,,,,,,,,,,,,,,,,,,,,,,,기업체총람,2022,,
277993,,,,,한일전력(주),배경철,,,,,,,,,,,,,,,,,,,,울산,"중구 내오산로 101, 2층 (태화동)",35.5542066,129.2928416,,,,,,,,,0522497272,,522497274.0,,전문직별 공사업,,,42311.0,,일반,,20.0,,,1995.0,3.0,10.0,,,www.hanil21.co.kr,전기공사업 전기공사업 내외부 전기공사 전기공사,,,,2014.0,,7705.0,,,,,,3859.0,,,,,,,,,,,,,,,,,,,,기업체총람,2022,,
280320,,,,,협성전기(주),박효열,,,,,,,,,,우) 44681,,,,,,,,,,울산,"남구 번영로267번길 6, 2층",35.5483576,129.3219953,,,,,,,,,0522616042,,522616043.0,,전문직별 공사업,,,42311.0,,일반,,6.0,,,2009.0,4.0,15.0,,,,전기 공사업,,,,,,,,,,,,,,,,,,,,,,,,,,,,,,,,조사모집단통합자료,2022,,
277996,,,,,희진건설(주),구자민,,,,,,,,,,우) 44533,,,,,,,,,,울산,"중구 당산길 20-1, 1층",35.5551313,129.3151501,,,,,,,,,0522582410,,522582403.0,,전문직별 공사업,,,42121.0,,일반,,9.0,,,2002.0,3.0,5.0,,,,"토공사,철근콘크리트공사,상하수도공사,미장방수공사,주택공사,보링그라우팅공사,포장공사,시설물유지관리공사",,,,2017.0,,2072.0,,,,,,1609.0,,,,,,,,,,,,,,,,,,,,기업체총람,2022,,
277681,,,,,(주)산양,엄재목,,,,,,,,,,,,,,,,,,,,울산,"중구 신기길 123, 2층",35.5515147,129.292582,,,,,,,,,0522242742,,,,,,,,,외감,,,,,2003.0,4.0,20.0,,,,,,,,,,,,,,,,22464.0,,,,,,,,,,,,,,,,,,,,기업체총람,2022,,
275746,,,,,(주)유성테크,김대현,,,,,,,,,,,,,,,,,,,,울산,북구 명촌동진장명촌지구 122블럭 2노트,35.5458637,129.3577722,,,,,,,,,0522895657,,522895658.0,,전기장비 제조업,,,28123.0,,일반,,7.0,,,2005.0,1.0,12.0,,,,자동화장비유지보수 산업용로봇 제어반 로봇시스템제작 자동화시스템패널 로봇자동화프로그램 방사선장치 및 전기식 진단기기 제조업 로봇시스템(자동제어반) 제조업 자동화장비 유지보수업,,,,2020.0,,2050.0,,,,,,10413.0,,,,,,,,,,,,,,,,,,,,기업체총람,2022,,
279451,,,,,금동건설(주),심명보,,,,,,,,,,,,,,,,,,,,울산,중구 신기길 123 (태화동),35.5515147,129.292582,,,,,,,,,0522242742,,522242745.0,,종합 건설업,,,41220.0,,일반,,10.0,,,1999.0,5.0,29.0,,,,토목건축공사,,,,2015.0,,2471.0,,,,,,3603.0,,,,,,,,,,,,,,,,,,,,조사모집단통합자료,2022,,
279527,,,,,대신환경(주),김기수,,,,,,,,,,우) 44201,,,,,,,,,,울산,북구 농서로 326-1 (달천동),35.6339221,129.3141428,,,,,,,,,0522449115,,522863700.0,,"폐기물 수집, 운반, 처리 및 원료 재생업",,,38210.0,,일반,,5.0,,,2001.0,9.0,27.0,,,,"일반폐기물수집운반 지정외 폐기물 수집운반업 폐기물처리,재생재료,가공처리업,파지,고철",,,,,,,,,,,,,,,,,,,,,,,,,,,,,,,,조사모집단통합자료,2022,,
274913,,,,,세영종합건설(주),박유규,,,,,,,,,,우) 44669,,,,,,,,,,울산,"남구 팔등로 13, 201(신정동,세영시티타워)",35.5443768,129.3081096,,,,,,,,,0522473030,,522566278.0,,종합 건설업,,,41100.0,,외감,,33.0,,,1997.0,2.0,15.0,,,www.se-young.net,"건축공사,토목공사,전기공사,부동산 컨설팅,건축설계",,,,2020.0,,25829.0,,,,,,25712.0,,,,,,,,,,,,,,,,,,,,기업체총람,2022,,
277433,,,,,울주청천(주),정영화,,,,,,,,,,우) 44936,,,,,,,,,,울산,울주군 언양읍 구수길 43-66 (구수리) 언양수질개선사업소내,35.5434575,129.1573182,,,,,,,,,027397457,,27397487.0,,"하수, 폐수 및 분뇨 처리업",,,37011.0,,외감,,2.0,,,2010.0,4.0,19.0,,,,"하수관거정비 민간부문울산광역시하수관거시설의건설,등운영과사업시행을위한",,,,2020.0,,3701.0,,,,,,80903.0,,,,,,,,,,,,,,,,,,,,기업체총람,2022,,
280535,,,,,(주)금성백조건설,"정대식,정화영",,,,,,,,,,우) 30128,,,,,,,,,,세종,"나성동 르네상스 제1동 708호, 709호",,,,,,,,,,,0426309443,,426346932.0,,종합 건설업,,,41220.0,,외감,,82.0,,,1992.0,12.0,30.0,,,,도로공사 도서관증축공사 강당증축공사 관공서건축공사 토목공사업 택지조성공사업 건축공사업 주택건설업,,,,2020.0,,217289.0,,,,,,325735.0,,,,,,,,,,,,,,,,,,,,기업체총람,2022,,
280626,,,,,(주)꿀맛푸드농업회사법인,윤여홍,,,,,,,,,,우) 30073,,,,,,,,,,세종,"부강면 문곡달미길 33, 981-4",36.5263919,127.385805,,,,,,,,,0425430546,,,,식료품 제조업,,,10129.0,,일반,,11.0,,,2016.0,8.0,25.0,,,,축산물 가공,,,,,,,,,,,,,,,,,,,,,,,,,,,,,,,,기업체총람,2022,,
281558,,,,,(주)세림정보,전성희,,,,,,,,,,,,,,,,,,,,세종,"도움8로 7, 112호 113호",36.5062957,127.2676134,,,,,,,,,0448652010,,448684802.0,,도매 및 상품 중개업,,,,,일반,,1.0,,,2015.0,5.0,6.0,,,,통신장비(전화기) 도소매,,,,2016.0,,927.0,,,,,,196.0,,,,,,,,,,,,,,,,,,,,조사모집단통합자료,2022,,
281609,,,,,(주)아이티세라믹,김기성,,,,,,,,,,우) 30083,,,,,,,,,,세종,"금남면 발산1길 49, 225-4",36.4555956,127.284645,,,,,,,,,0448626083,,448667211.0,,도매 및 상품 중개업,,,46699.0,,일반,,3.0,,,2012.0,1.0,19.0,,,,"정보통신공사,무선 통신기기 제조,도소매",,,,2016.0,,775.0,,,,,,882.0,,,,,,,,,,,,,,,,,,,,조사모집단통합자료,2022,,
281196,,,,,(주)영앤아이,송경영,,,,,,,,,,우) 30031,,,,,,,,,,세종,"조치원읍 대첩로 75, 501-비호",36.5946418,127.2878382,,,,,,,,,0428222658,,448620356.0,,부동산업,,,68112.0,,일반,,2.0,,,2002.0,3.0,19.0,,,,상가건설 건물 시행 임대 건축공사 아파트공사,,,,2020.0,,802.0,,,,,,8884.0,,,,,,,,,,,,,,,,,,,,기업체총람,2022,,
281642,,3078145829.0,,,(주)왕관일,강희연,,,,,,,,,,우) 30146,,,,,,,,,,세종,"한누리대로 1820, 314-2호(반곡동, 왕관빌딩)",36.4944785,127.3097971,,,,,,,,,0448686218,,448686219.0,부동산업,부동산업,,,68122.0,,외감,,3.0,,,2014.0,6.0,17.0,,,www.wg-building.com/,,,,,2020.0,12.0,8823.0,,,17.0,30.0,1334.0,33121.0,542.0,32579.0,,,,,,,,,,,,,,,,,,조사모집단통합자료,2022,,
281079,,,,,(주)원창기업,"서장호,서미애",,,,,,,,,,,,,,,,,,,,세종,전의면 관정리전의2일반산업단지 10블럭,36.7049722,127.2101108,,,,,,,,,0418662615,,418669840.0,,기타 기계 및 장비 제조업,,,29294.0,,일반,,,,,2006.0,2.0,1.0,,,,차단기 부품 기타 플라스틱제품,,,,2017.0,,8575.0,,,,,,,,,,,,,,,,,,,,,,,,,,기업체총람,2022,,
281086,,,,,(주)창성,황혁,,,,,,,,,,우) 30005,,,,,,,,,,세종,전의면 유천리 305번지,36.6872544,127.1719514,,,,,,,,,0448632874,,448627177.0,,고무 및 플라스틱제품 제조업,,,22211.0,,일반,,32.0,,,1985.0,7.0,1.0,,,,"PVC샤시,PVC발포사각바,정밀기계,엔지니어링플라스틱성형 제조,도매,무역",,,,2018.0,,5351.0,,,,,,5251.0,,,,,,,,,,,,,,,,,,,,기업체총람,2022,,
280551,,,,,(주)태웅,송치운,,,,,,,,,,,,,,,,,,,,세종,"나송북로 21, 109호(나성동, 센트럴타워)",36.4898147,127.258937,,,,,,,,,0448685959,,,,,,,,,외감,,,,,2017.0,11.0,7.0,,,,,,,,2020.0,,-1130.0,,,,,,18370.0,,,,,,,,,,,,,,,,,,,,기업체총람,2022,,
281774,,,,,금륭투수개발(주),김봉갑,,,,,,,,,,우) 30034,,,,,,,,,,세종,"조치원읍 충현로 28, 401-2호",36.5916088,127.2991313,,,,,,,,,0445551103,,445551179.0,,전문직별 공사업,,,42134.0,,일반,,8.0,,,1998.0,2.0,1.0,,,,"포장공사,특수성 콘크리트 제조",,,,2015.0,,2326.0,,,,,,2334.0,,,,,,,,,,,,,,,,,,,,조사모집단통합자료,2022,,
281793,,,,,다솜푸드(주),최동민,,,,,,,,,,,,,,,,,,,,세종,소정면 운당양촌불당골길 26,36.7144252,127.1690132,,,,,,,,,0448633593,,448623594.0,,식료품 제조업,,,10129.0,,일반,,15.0,,,2013.0,11.0,22.0,,,,"육류 가공,축산물 포장처리,육계 도소매",,,,,,,,,,,,,,,,,,,,,,,,,,,,,,,,조사모집단통합자료,2022,,
281392,,,,,미래뷰개발(주),김준민,,,,,,,,,,우) 30130,,,,,,,,,,세종,"한누리대로 157 (나성동, 금강프라자) 306",36.4791529,127.2624012,,,,,,,,,0424862152,,424862152.0,,부동산업,,,68122.0,,외감,,1.0,,,2014.0,6.0,13.0,,,www.fineconst.co.kr,"부동산 개발,공급,임대",,,,2020.0,,9011.0,,,,,,2559.0,,,,,,,,,,,,,,,,,,,,기업체총람,2022,,
281839,,3078135786.0,,,세종개발(주),정용원,,,,,,,,,,,,,,,,,,,,세종,"연기면 정안세종로 1569 (산울리, 건설공제조합세종필드골프클럽)",36.5357882,127.2541377,,,,,,,,,0448615678,,448615519.0,"예술, 스포츠 및 여가관련 서비스업",스포츠 및 오락관련 서비스업,,,91121.0,,외감,,17.0,,,2011.0,12.0,22.0,,,www.sejonggc.com,,,,,2020.0,12.0,14763.0,,,5186.0,5000.0,6468.0,14887.0,12377.0,2510.0,,,,,,,,,,,,,,,,,,조사모집단통합자료,2022,,
281847,,,,,세종아이에스(주),박상열,,,,,,,,,,우) 30151,,,,,,,,,,세종,"한누리대로 2150, 803B호",36.478506,127.2873756,,,,,,,,,0448654014,,448650149.0,,"건축 기술, 엔지니어링 및 기타 과학기술 서비스업",,,72924.0,,일반,,8.0,,,2018.0,11.0,2.0,,,,,,,,,,,,,,,,64.0,,,,,,,,,,,,,,,,,,,,조사모집단통합자료,2022,,
280814,,,,,용마산업(주),박동수,,,,,,,,,,우) 30060,,,,,,,,,,세종,연기면 원수산로 155,36.5160372,127.2920509,,,,,,,,,0448665020,,448665024.0,,비금속 광물제품 제조업,,,23322.0,,일반,,13.0,,,2000.0,2.0,22.0,,,,"레미콘,아스콘,주상복합건물임대",,,,2011.0,,13379.0,,,,,,7256.0,,,,,,,,,,,,,,,,,,,,기업체총람,2022,,
280451,,,,,한백건설정보(주),송주영,,,,,,,,,,우) 30128,,,,,,,,,,세종,"국세청로 4, 412-2호",36.4859085,127.2588849,,,,,,,,,07076066337,,7076144037.0,,정보서비스업,,,63991.0,,일반,,2.0,,,2014.0,8.0,14.0,,,www.whobuilds.kr,,,,,2020.0,,106.0,,,,,,125.0,,,,,,,,,,,,,,,,,,,,기업체총람,2022,,
392035,,,,,(자)에스에이치해양수산개발,우미화,,,,,,,,,,우) 25626,,,,,,,,,,강원,강릉시 강동면 갯목길 69,37.7377742,128.9847115,,,,,,,,,0336441974,,336442614.0,,도매 및 상품 중개업,,,46310.0,,일반,,5.0,,,2001.0,8.0,25.0,,,,광어 묘목,,,,,,,,,,,,,,,,,,,,,,,,,,,,,,,,조사모집단통합자료,2022,,
388191,,,,,(자)한솔창호,최상기,,,,,,,,,,우) 26310,,,,,,,,,,강원,원주시 소초면 흥양리 241-1,37.3643678,128.0053524,,,,,,,,,0337478238,,337468238.0,,고무 및 플라스틱제품 제조업,,,22220.0,,일반,,6.0,,,2008.0,5.0,23.0,,,,플라스틱창호새시 기타건축용플라스틱조립제품제조업,,,,,,,,,,,,,,,,,,,,,,,,,,,,,,,,기업체총람,2022,,
387887,,,,,(주)LF스퀘어씨사이드,정준무,,,,,,,,,,우) 25026,,,,,,,,,,강원,"양양군 양양읍 임천1길 26-3(서문리, 코아루아파트)101동 1601호",38.0703238,128.6144473,,,,,,,,,0267102721,,,,부동산업,,,68112.0,,외감,,1.0,,,2017.0,6.0,20.0,,,,,,,,,,,,,,,,21326.0,,,,,,,,,,,,,,,,,,,,기업체총람,2022,,
392093,,,,,(주)강릉농산물도매시장,한창운,,,,,,,,,,우) 25612,,,,,,,,,,강원,강릉시 유산동 160번지,37.7379984,128.9180419,,,,,,,,,0336464654,,336464860.0,,도매 및 상품 중개업,,,46310.0,,일반,,15.0,,,1999.0,11.0,1.0,,,www.gnns.co.kr,과일 채소 청과류 도매,,,,,,,,,,,,,,,,,,,,,,,,,,,,,,,,조사모집단통합자료,2022,,
392278,,,,,(주)나마트,문숙자,,,,,,,,,,,,,,,,,,,,강원,원주시 단구동 145-3-10,37.3265172,127.9601478,,,,,,,,,0337654403,,337654407.0,,전문직별 공사업,,,42492.0,,일반,,6.0,,,2006.0,2.0,15.0,,,www.namat.kr,"금속구조물공사,스텐레스(연설조회대,세면대) 제조",,,,2016.0,,1924.0,,,,,,1450.0,,,,,,,,,,,,,,,,,,,,조사모집단통합자료,2022,,
392297,,,,,(주)네모컬처스,김완,,,,,,,,,,,,,,,,,,,,강원,춘천시 서면 박사로 창작개발센터 B105호,37.8949844,127.6916424,,,,,,,,,07087324375,,30331304375.0,,,,,,,일반,,3.0,,,,,,,,www.nemocultures.com,"영상콘텐츠(광고영상,홍보영상,기록영상,영화,뮤직비디오,인터넷생중계) 제작",,,,,,2015.0,,,219.0,,,,,,,,,,,,,,영화,,,,,,,,,조사모집단통합자료,2022,,
390188,,,,,(주)동서고속관광,조인구,,,,,,,,,,우) 24210,,,,,,,,,,강원,춘천시 동면 소양강로 310,37.9134766,127.763809,,,,,,,,,0332436665,,332436664.0,,육상 운송 및 파이프라인 운송업,,,49232.0,,일반,,12.0,,,2007.0,6.0,3.0,,,,전세버스 운송,,,,,,,,,,,,,,,,,,,,,,,,,,,,,,,,기업체총람,2022,,
391713,,,,,(주)두콩양행,이지원,,,,,,,,,,,,,,,,,,,,강원,횡성군 횡성읍 청룡3길 15,37.4906331,127.9958514,,,,,,,,,0317046070,,317046117.0,,식료품 제조업,,,10302.0,,일반,,45.0,,,1989.0,7.0,15.0,,,www.dukong.com,건표고버섯 건조김치 김치 및 채소절임식품 제조업 김치 및 유사 채소절임식품 제조업 무역업 물품매도확약서 발행업,,,,,,,,,,,,,,,,,,,,,,,,,,,,,,,,기업체총람,2022,,
390196,,,,,(주)드림테크,임진섭,,,,,,,,,,우) 24427,,,,,,,,,,강원,춘천시 퇴계공단1길 56 2층,37.8449718,127.7388624,,,,,,,,,03316614110,,332564112.0,,"전자 부품, 컴퓨터, 영상, 음향 및 통신장비 제조업",,,26420.0,,일반,,18.0,,,2010.0,9.0,2.0,,,www.mydreamtech.co.kr,"정보통신공사,라디오,전축,앰프,안테나,텔레비전,수상기 제조,응용소프트웨어,네트워크 개발,공급",,,,2020.0,,6559.0,,,,,,2636.0,,,,,,,,,,,,,,,,,,,,기업체총람,2022,,
392542,,1068627198.0,,,(주)라셋파트너스,"박호용,박재성",,,,,,,,,,우) 25947,,,,,,,,,,강원,삼척시 도계읍 도계강변1길 41-2 3층,37.2388773,129.0450492,,,,,,,,,0335410654,,7042755906.0,"사업시설 관리, 사업 지원 및 임대 서비스업",사업시설 관리 및 조경 서비스업,,,74100.0,,외감,,112.0,,,2004.0,3.0,26.0,,,www.bldgbank.com/,부동산관리 청소 용역 스포츠센타 운영 건물 관리,,,,2020.0,,13341.0,,,225.0,1000.0,-1433.0,5568.0,2369.0,3199.0,,,,,,,,,,,,,,,,,,조사모집단통합자료,2022,,
392623,,,,,(주)미래건축,김재군,,,,,,,,,,우) 26044,,,,,,,,,,강원,태백시 사배리길 4,37.1256094,129.0029401,,,,,,,,,0335536531,,335531882.0,,종합 건설업,,,41110.0,,일반,,5.0,,,2013.0,5.0,21.0,,,,"주거용건물공사,토목공사,시설관리,청소용역",,,,2020.0,,437.0,,,,,,230.0,,,,,,,,,,,,,,,,,,,,조사모집단통합자료,2022,,
390242,,,,,(주)바이오닉스,김대성,,,,,,,,,,,,,,,,,,,,강원,춘천시 신북읍 신북로 31-14 춘천벤처 2공장 103호 201호,37.9475161,127.7455737,,,,,,,,,0332559041,,332419049.0,,"의료, 정밀, 광학 기기 및 시계 제조업",,,27112.0,,일반,,15.0,,,2004.0,2.0,27.0,,,www.ebionics.co.kr,심전계 외 환자 및 태아 감시장치 심전계 환자감시장치 태아감시장치 분만감시장치 심전계 방사선장치(환자감시장치 태아감시장치 심전도진단기기) 의료기기 제조,,,,2018.0,,1562.0,,,,,,5034.0,,,,,,,,,,,,,,,,,,,,기업체총람,2022,,
392671,,,,,(주)베스트공조,김대호,,,,,,,,,,우) 25563,,,,,,,,,,강원,"강릉시 경강로 2368, 3층",37.7702901,128.9201204,,,,,,,,,0336556888,,336536887.0,,전문직별 공사업,,,42201.0,,일반,,5.0,,,2009.0,8.0,1.0,,,,"에어컨,냉난방기기계설비공사,냉난방기 도소매",,,,2015.0,,1777.0,,,,,,427.0,,,,,,,,,,,,,,,,,,,,조사모집단통합자료,2022,,
392725,,6138127032.0,,,(주)산돌식품,이호성,,,,,,,,,,,,,,,,,,,,강원,홍천군 홍천읍 상오만리 126-1,37.6584282,127.8251777,,,,,,,,,0334351010,,334351459.0,제조업,식료품 제조업,,,10620.0,,외감,,96.0,,,2001.0,12.0,18.0,,,www.sandolfood.co.kr,생칼국수 냉면 떡볶이떡 떡국떡 전분 사료 면류 제조,,,,2020.0,12.0,17756.0,,,268.0,1700.0,853.0,10860.0,1844.0,9016.0,,,,,,,,,,,,,,,,,,조사모집단통합자료,2022,,
392776,,,,,(주)상원이앤씨,이경숙,,,,,,,,,,우) 26398,,,,,,,,,,강원,원주시 판부면 남원로 271,37.3146451,127.9338379,,,,,,,,,0337446579,,632475012.0,,전문직별 공사업,,,42420.0,,일반,,8.0,,,2005.0,3.0,8.0,,,,"전기공사업,금속창호공사업",,,,2014.0,,1128.0,,,,,,2119.0,,,,,,,,,,,,,,,,,,,,조사모집단통합자료,2022,,
392866,,,,,(주)세원상사,이민세,,,,,,,,,,,,,,,,,,,,강원,철원군 김화읍 청량리 2879,38.2685865,127.4100482,,,,,,,,,0334587897,,334587685.0,,섬유제품 제조업; 의복 제외,,,13104.0,,일반,,28.0,,,1996.0,8.0,1.0,,,www.senselon.com,인조가발사 인조가발사 가발 및 유사 장신용품 제조업 인조가발사 인조가발사 제조,,,,2020.0,,6912.0,,,,,,9771.0,,,,,,,,,,,,,,,,,,,,조사모집단통합자료,2022,,
392883,,,,,(주)솔모루,강경훈,,,,,,,,,,우) 24032,,,,,,,,,,강원,철원군 갈말읍 갈말로 32-40,38.1618543,127.3077748,,,,,,,,,0334521452,,334527452.0,,식료품 제조업,,,10129.0,,일반,,3.0,,,2000.0,9.0,1.0,,,www.solmoroo.co.kr,사골곰국 사골곰국 식품제조 및 가공 판매업 식품기계제작 및 판매업 부동산 임대업 도소매 및 부수되는 용역업,,,,2014.0,,1595.0,,,,,,,,,,,,,,,,,,,,,,,,,,조사모집단통합자료,2022,,
386476,,,,,(주)써모텍,김인태,,,,,,,,,,,,,,,,,,,,강원,강릉시 대전동 1번지 강릉과학산업단지 내 가-4-3 블럭,37.7957919,128.8535305,,,,,,,,,0336550783,,336550786.0,,기타 기계 및 장비 제조업,,,29150.0,,일반,,11.0,,,2001.0,10.0,13.0,,,www.cermo.co.kr,전기로 진공로 CVD 박막용장비 전기로 및 주변기기 제조 판매업 컨트롤러 및 온도기록계 등 제조판매업 측정기기 및 실험기기 제조판매업 진공로 전기로 관련 측정장비 열분석기기 제조 및 도소매,,,,2015.0,,308.0,,,,,,2223.0,,,,,,,,,,,,,,,,,,,,기업체총람,2022,,
390434,,,,,(주)에코비즈넷,조정섭,,,,,,,,,,우) 24232,,,,,,,,,,강원,"춘천시 소양강로 56, 4-1,4-2",37.8933074,127.7457929,,,,,,,,,0332586400,,332586405.0,,의료용 물질 및 의약품 제조업,,,21102.0,,일반,,15.0,,,2000.0,4.0,15.0,,,www.ecobiznet.com,추출제외) 사료(비타민제 수처리 광합성세균균주 환경경영시스템구축 환경진단 환경엔지니어링 경영 상담,,,,2020.0,,2710.0,,,,,,3500.0,,,,,,,,,,,,,,,,,,,,기업체총람,2022,,
390496,,,,,(주)월드케미칼,박재희,,,,,,,,,,우) 24410,,,,,,,,,,강원,춘천시 동산면 원무동 길 85-5,37.7637986,127.7871296,,,,,,,,,0332564884,,332444884.0,,고무 및 플라스틱제품 제조업,,,22211.0,,일반,,27.0,,,2006.0,4.0,24.0,,,okunion.co.kr,폴리에틸렌상하수도관 상하수도파이프(PE파이프) 제조,,,,2020.0,,3857.0,,,,,,5678.0,,,,,,,,,,,,,,,,,,,,기업체총람,2022,,
393261,,,,,(주)육림연탄,심병석,,,,,,,,,,,,,,,,,,,,강원,춘천시 근화동 36블럭 1로트,37.8846917,127.7146857,,,,,,,,,0332550700,,332532188.0,,"코크스, 연탄 및 석유정제품 제조업",,,19102.0,,일반,,12.0,,,1985.0,3.0,1.0,,,,연탄 토지임대 연탄 제조업 부동산업 연탄 제조 및 도소매 부동산(점포) 임대,,,,2017.0,,2438.0,,,,,,4434.0,,,,,,,,,,,,,,,,,,,,조사모집단통합자료,2022,,
393273,,2218116466.0,,,(주)이뮨메드,안병옥,,,,,,,,,,우) 24232,,,,,,,,,,강원,"춘천시 소양강로 32, 2-2호",37.892294,127.7435064,,,,,,,,,0332586551,,332586553.0,제조업,의료용 물질 및 의약품 제조업,,,21102.0,,외감,,56.0,,,2000.0,5.0,10.0,,,www.immunemed.co.kr,급성열성질환 진단키트 백신 의학 및 약학 연구 개발업 의료연구및개발,,,,2020.0,12.0,320.0,,,-17651.0,1242.0,-12664.0,9249.0,-47989.0,57237.0,,,,,,,,,,,,,,,,,,조사모집단통합자료,2022,,
389929,,,,,(주)초가,이창호,,,,,,,,,,,,,,,,,,,,강원,철원군 김화읍 청량리 2889,38.2685865,127.4100482,,,,,,,,,0334587676,,334588381.0,,음료 제조업,,,11111.0,,일반,,2.0,,,2005.0,8.0,8.0,,,www.choga.co.kr,막걸리 농주 음료 및 담배 도매업,,,,2016.0,,332.0,,,,,,1726.0,,,,,,,,,,,,,,,,,,,,기업체총람,2022,,
393511,,,,,(주)춘천주류합동,서영희,,,,,,,,,,우) 24246,,,,,,,,,,강원,춘천시 근화동 748-13번지,37.8773522,127.7118754,,,,,,,,,0332544707,,332570811.0,,도매 및 상품 중개업,,,46331.0,,일반,,18.0,,,1977.0,7.0,1.0,,,,주류 주류 도매업,,,,2020.0,,3622.0,,,,,,4220.0,,,,,,,,,,,,,,,,,,,,조사모집단통합자료,2022,,
393543,,,,,(주)코주부프레쉬쿡,김동겸,,,,,,,,,,우) 26150,,,,,,,,,,강원,"정선군 사북읍 사북7길 6, 3층",37.2275887,128.8225319,,,,,,,,,0335914155,,335914118.0,,음식점 및 주점업,,,56130.0,,일반,,10.0,,,2000.0,1.0,1.0,,,,"구내식당(단체급식),시설물유지관리,주차관리,경비용역,인력관리대행,소프트웨어 개발",,,,,,,,,,,,,,,,,,,,,,,,,,,,,,,,조사모집단통합자료,2022,,
393638,,2248129354.0,,,(주)플로닉스,이상선,,,,,,,,,,,,,,,,,,,,강원,원주시 호저면 광학로 561-11,37.4575637,127.9347845,,,,,,,,,0337313550,,337313559.0,제조업,기타 기계 및 장비 제조업,,,29133.0,,외감,,90.0,,,2003.0,7.0,29.0,,,www.fluonics.com,"PFA LINED DIA'밸브 PFA LINED BALL밸브 다이아프램밸브 볼밸브 피팅 PTFE파이프 탭,밸브 및 유사장치 제조업 반도체장비,자동차부품 반도체장비 부품 제조",,,,2020.0,12.0,12404.0,,,487.0,200.0,334.0,27105.0,6419.0,20686.0,,,,,,,,,,,,,,,,,,조사모집단통합자료,2022,,
389115,,,,,(주)형제,임태순,,,,,,,,,,우) 26408,,,,,,,,,,강원,"원주시 봉화로 148, 505-4",37.3576655,127.9288074,,,,,,,,,0337430900,,,,자동차 및 부품 판매업,,,45219.0,,일반,,,,,2014.0,11.0,1.0,,,,,,,,2018.0,,4748.0,,,,,,3306.0,,,,,,,,,,,,,,,,,,,,기업체총람,2022,,
386698,,,,,(주)황도,고남철,,,,,,,,,,우) 25430,,,,,,,,,,강원,강릉시 연곡면 연주로 150-11,37.8701657,128.8392442,,,,,,,,,0336625236,,,,식료품 제조업,,,10211.0,,일반,,27.0,,,2010.0,3.0,5.0,,,,"건어물(조미오징어),수산물 제조,도소매",,,,2020.0,,7861.0,,,,,,7074.0,,,,,,,,,,,,,,,,,,,,기업체총람,2022,,
393816,,,,,(주)횡성테마랜드,박복래,,,,,,,,,,우) 25249,,,,,,,,,,강원,횡성군 우천면 한우로두곡4길 50,37.4782336,128.0403624,,,,,,,,,0333455691,,333455508.0,,"창작, 예술 및 여가관련 서비스업",,,90190.0,,일반,,9.0,,,2004.0,8.0,10.0,,,www.hsthemeland.com,이벤트 문화행사 주최 기타 산업용 기계장비 임대업 이벤트 문화행사 주최,,,,,,,,,,,,,,,,,,,,,,,,,,,,,,,,조사모집단통합자료,2022,,
393878,,2268127518.0,,,강원풍력발전(주),이규환,,,,,,,,,,우) 25341,,,,,,,,,,강원,평창군 대관령면 꽃밭양지길 688-206,37.7363285,128.7258541,,,,,,,,,15448302,,15448305.0,"전기, 가스, 증기 및 공기 조절 공급업","전기, 가스, 증기 및 공기 조절 공급업",,,35119.0,,외감,,11.0,,,2002.0,10.0,1.0,,,www.gawip.co.kr,풍력발전 대관령 소재 200㎿급 풍력발전소 개발 설계 풍력발전 전기 위항의 자금조달 건설 관리 및 운영 전항에 규정한 사업에 수반하는 일체의 사업,,,,2020.0,12.0,23350.0,,,7468.0,37862.0,10076.0,77342.0,75957.0,1385.0,,,,,,,,,,,,,,,,,,조사모집단통합자료,2022,,
393925,,,,,고한사북남면청년주민(주),이성순,,,,,,,,,,우) 26150,,,,,,,,,,강원,"정선군 사북읍 사북7길 6, 2층",37.2275887,128.8225319,,,,,,,,,0335919997,,335919998.0,,사업 지원 서비스업,,,75310.0,,일반,,2.0,,,2009.0,5.0,4.0,,,,"경호,경비,청소,건물관리,통신,주차관리용역,행사 대행,대리운전,잡화 도소매",,,,2020.0,,4733.0,,,,,,1447.0,,,,,,,,,,,,,,,,,,,,조사모집단통합자료,2022,,
387049,,,,,국도건설(주),주재국,,,,,,,,,,우) 24764,,,,,,,,,,강원,고성군 토성면 천진7길 14,38.2577646,128.5563932,,,,,,,,,0336368804,,336368805.0,,전문직별 공사업,,,42130.0,,일반,,5.0,,,1998.0,9.0,1.0,,,,"철근콘크리트공사 상하수도공사 상하수도설비공사,철근콘크리트공사 토공사업 철근콘크리트 공사업 상하수도 설비 공사업",,,,,,,,,,,,,,,,,,,,,,,,,,,,,,,,기업체총람,2022,,
394004,,,,,농업회사법인린디미방(주),박연우,,,,,,,,,,우) 24621,,,,,,,,,,강원,인제군 북면 원통리 782번지,38.1323492,128.2292072,,,,,,,,,0334630011,,334639012.0,,식료품 제조업,,,10302.0,,일반,,34.0,,,2011.0,8.0,25.0,,,,"가공식품,소분(절임식품) 도매,과실,채소 절임식품 제조",,,,2017.0,,2330.0,,,,,,,,,,,,,,,,,,,,,,,,,,조사모집단통합자료,2022,,
394005,,,,,농업회사법인목촌미트플러스(주),장기수,,,,,,,,,,우) 25619,,,,,,,,,,강원,"강릉시 월호평길 88-12, ,234-2",37.7445471,128.9394383,,,,,,,,,0336510730,,336530730.0,,도매 및 상품 중개업,,,46313.0,,일반,,,,,2017.0,1.0,1.0,,,,,,,,2020.0,,3266.0,,,,,,1220.0,,,,,,,,,,,,,,,,,,,,조사모집단통합자료,2022,,
394009,,,,,농업회사법인봉산식품(주),장재식,,,,,,,,,,우) 24624,,,,,,,,,,강원,"인제군 인제읍 인제로112번길 36-30, 1층",38.0614674,128.165994,,,,,,,,,0334611222,,334610533.0,,식료품 제조업,,,10302.0,,일반,,11.0,,,1990.0,6.0,1.0,,,,"김치 절임식품 외 김치 절임식품 외 김치,절임식품 외",,,,2017.0,,2216.0,,,,,,,,,,,,,,,,,,,,,,,,,,조사모집단통합자료,2022,,
390855,,,,,맥도관광(주),김성규,,,,,,,,,,우) 24239,,,,,,,,,,강원,춘천시 삼천동 469번지,37.8729351,127.6972468,,,,,,,,,0332422805,,,,수상 운송업,,,50201.0,,일반,,9.0,,,1995.0,12.0,15.0,,,,내륙 수상 여객 운송업 내륙 수상 여객 운송업 내륙 수상 여객 운송업,,,,2012.0,,275.0,,,,,,,,,,,,,,,,,,,,,,,,,,기업체총람,2022,,
394233,,,,,문막운수(주),고광석,,,,,,,,,,우) 26365,,,,,,,,,,강원,원주시 문막읍 동화리 529-1,37.3252215,127.8421392,,,,,,,,,0337352828,,337352827.0,,육상 운송 및 파이프라인 운송업,,,49310.0,,일반,,9.0,,,2000.0,4.0,1.0,,,,화물운송 일반 화물자동차 운송업 화물 화물자동차 운송,,,,,,,,,,,,,,,,,,,,,,,,,,,,,,,,조사모집단통합자료,2022,,
387862,,,,,사명종합건설(주),김영일,,,,,,,,,,우) 24539,,,,,,,,,,강원,"양구군 양구읍 박수근로313번길 17, 상가동 지하2층 2-씨호",38.1002922,127.9816897,,,,,,,,,0334827742,,334827419.0,,종합 건설업,,,41220.0,,일반,,7.0,,,2001.0,5.0,4.0,,,,,,,,2020.0,,740.0,,,,,,746.0,,,,,,,,,,,,,,,,,,,,기업체총람,2022,,
394309,,,,,삼안기업(주),김재명,,,,,,,,,,우) 25241,,,,,,,,,,강원,횡성군 횡성읍 청용1길 11,37.4727326,127.9827215,,,,,,,,,0333455111,,333455112.0,,고무 및 플라스틱제품 제조업,,,,,일반,,9.0,,,1998.0,12.0,1.0,,,www.sam-an.co.kr,오수정화장치 오수처리시설공사 정화조처리업 오수처리업 정화조 에프알피제품 플리머콘크리트 분뇨처리시설공사,,,,2017.0,,981.0,,,,,,1448.0,,,,,,,,,,,,,,,,,,,,조사모집단통합자료,2022,,
394395,,,,,세계연마(주),이상옥,,,,,,,,,,우) 25627,,,,,,,,,,강원,강릉시 강동면 모전리 256-6,37.7170389,128.9665449,,,,,,,,,0336457455,,336457466.0,,비금속 광물제품 제조업,,,23992.0,,일반,,27.0,,,2004.0,9.0,3.0,,,www.worldabrasives.co.kr,"연마지 연마포 연마지,포 관련 제조업 연마재 제조 판매 및 수출 연마지 포 제조",,,,,,,,,,,,,,,,,,,,,,,,,,,,,,,,조사모집단통합자료,2022,,
390902,,,,,신영상사(주),이창희,,,,,,,,,,우) 24200,,,,,,,,,,강원,춘천시 사북면 신포리 338,38.0267567,127.6407671,,,,,,,,,027762254,,27712256.0,,부동산업,,,68112.0,,일반,,7.0,,,1956.0,9.0,26.0,,,,건물임대 부동산 임대 임대 된장 고추장 고추장 제조업 된장 제조업 부동산 임대,,,,,,,,,,,,,,,,,,,,,,,,,,,,,,,,기업체총람,2022,,
389378,,,,,에스아이건설(주),이남섭,,,,,,,,,,우) 26397,,,,,,,,,,강원,원주시 판부면 마장2길 20-6,37.3087543,127.9260384,,,,,,,,,0337657351,,337657980.0,,종합 건설업,,,41100.0,,일반,,,,,2007.0,3.0,2.0,,,,"건축공사,건설자재 도소매",,,,2017.0,,9742.0,,,,,,6396.0,,,,,,,,,,,,,,,,,,,,기업체총람,2022,,
386862,,,,,에스에이치영어조합법인,이하영,,,,,,,,,,우) 25626,,,,,,,,,,강원,강릉시 강동면 갯목길 69,37.7377742,128.9847115,,,,,,,,,0336441974,,336442614.0,,도매 및 상품 중개업,,,46310.0,,일반,,5.0,,,2008.0,9.0,26.0,,,,조개 어패류 수산물 도매업,,,,,,,,,,,,,,,,,,,,,,,,,,,,,,,,기업체총람,2022,,
387075,,,,,와이비레미콘(주),김갑용,,,,,,,,,,,,,,,,,,,,강원,고성군 간성읍 금수리산8-1,38.3328173,128.3918557,,,,,,,,,0336331785,,,,비금속 광물제품 제조업,,,23322.0,,일반,,4.0,,,2008.0,8.0,5.0,,,,레미콘 제조,,,,2017.0,,2557.0,,,,,,,,,,,,,,,,,,,,,,,,,,기업체총람,2022,,
394577,,2258117977.0,,,우리주민(주),김진복,,,,,,,,,,우) 26150,,,,,,,,,,강원,"정선군 사북읍 사북7길 6, 3층",37.2275887,128.8225319,,,,,,,,,0335910607,,335910609.0,"사업시설 관리, 사업 지원 및 임대 서비스업",사업시설 관리 및 조경 서비스업,,,74100.0,,외감,,408.0,,,2006.0,10.0,2.0,,,www.woorijumin.kr,청소용역 청소용역,,,,2020.0,12.0,15538.0,,,908.0,400.0,884.0,5065.0,1877.0,3188.0,,,,,,,,,,,,,,,,,,조사모집단통합자료,2022,,
389470,,,,,조광종합건설(주),김근배,,,,,,,,,,,,,,,,,,,,강원,원주시 마장1길 1-6,37.3105471,127.9212701,,,,,,,,,0337640363,,337640365.0,,종합 건설업,,,41100.0,,일반,,15.0,,,2000.0,4.0,26.0,,,,"건축공사,토목공사",,,,2015.0,,613.0,,,,,,2117.0,,,,,,,,,,,,,,,,,,,,기업체총람,2022,,
391171,,,,,태백풍력발전(주),박종환,,,,,,,,,,우) 26000,,,,,,,,,,강원,태백시 귀네미길 401(하사미동),37.3420343,129.0068255,,,,,,,,,07074506066,,335521055.0,,"전기, 가스, 증기 및 공기 조절 공급업",,,35119.0,,외감,,4.0,,,2009.0,10.0,6.0,,,,"풍력발전소운영 태백 풍력 발전소의 건설,관리 및 운영사업",,,,2020.0,,4364.0,,,,,,28876.0,,,,,,,,,,,,,,,,,,,,기업체총람,2022,,
389518,,2248100060.0,,,태창운수(주),김종헌,,,,,,,,,,우) 26484,,,,,,,,,,강원,"원주시 서원대로 410, 501,502호",37.3297932,127.9502934,,,,,,,,,0337613781,,337610024.0,운수 및 창고업,육상 운송 및 파이프라인 운송업,,,49212.0,,외감,,93.0,,,1958.0,2.0,15.0,,,www.taechangbus.com,시내버스운송업 시내버스운영 서비스업 시내버스 운송 옥외광고,,,,2014.0,12.0,14360.0,,,30.0,152.0,797.0,8992.0,2085.0,6907.0,,,,,,,,,,,,,,,,,,기업체총람,2022,,
394818,,,,,필립건설(주),민백기,,,,,,,,,,우) 25617,,,,,,,,,,강원,"강릉시 공항길 25, 1-2층",37.7625169,128.9391394,,,,,,,,,0336512044,,336512040.0,,종합 건설업,,,41229.0,,일반,,25.0,,,2011.0,4.0,19.0,,,,"상하수도설비공사,시설물유지공사,토공사,철근콘크리트공사,건설기계 임대(건설),육상골재 채취",,,,2020.0,,3216.0,,,,,,2646.0,,,,,,,,,,,,,,,,,,,,조사모집단통합자료,2022,,
394852,,,,,한성(주),이재덕,,,,,,,,,,,,,,,,,,,,강원,영월군 북면 문곡리 영월농공단지 3블럭,37.2266583,128.4210617,,,,,,,,,0333747128,,333747129.0,,비금속 광물제품 제조업,,,23993.0,,일반,,48.0,,,1993.0,8.0,11.0,,,www.ihansung.net,"백운석 분말제품 고토비료 유리원료 광업(백운석,석회석) 비금속광물분쇄처리 비료 제조",,,,2018.0,,10542.0,,,,,,,,,,,,,,,,,,,,,,,,,,조사모집단통합자료,2022,,
386294,,,,,(주)대일수산,박근용,,,,,,,,,,우) 25424,,,,,,,,,,강원,강릉시 주문진읍 해안로 1661,37.8952651,128.8292485,,,,,,,,,0336610978,,,,도매 및 상품 중개업,,,46315.0,,일반,,10.0,,,2014.0,6.0,18.0,,,,,,,,2017.0,,5851.0,,,,,,,,,,,,,,,,,,,,,,,,,,기업체총람,2022,,
393300,,,,,(주)인카코커뮤니케이션즈,임대섭,,,,,,,,,,우) 24341,,,,,,,,,,강원,"춘천시 강원대학길 1, 208-1호",37.8689546,127.7450121,,,,,,,,,07075729835,,3033130520.0,,전문 서비스업,,,71310.0,,일반,,5.0,,,2015.0,2.0,11.0,,,,"광고 대행,광고물 작성",,,,,,,,,,,,,,,,,,,,,,,,,,,,,,,,조사모집단통합자료,2022,,
394694,,5108700245.0,,,중앙리조트투자(주),인채권,,,,,,,,,,우) 25307,,,,,,,,,,강원,평창군 봉평면 태기로 227-84(면온리),37.5892187,128.3356674,,,,,,,,,0220311324,,220311391.0,금융 및 보험업,금융업,,,,,외감,,4.0,,,2015.0,12.0,23.0,,,,"스키리조트,숙박리조트 투자",,,,,12.0,,,,-26423.0,13330.0,-25854.0,141672.0,116994.0,24678.0,,,,,,,,,,,,,,,,,,조사모집단통합자료,2022,,
387364,,,,,현진레미콘(주),"채창희,김용근",,,,,,,,,,,,,,,,,,,,강원,동해시 추암동 산34-9번지,37.4669094,129.1485191,,,,,,,,,0335735185,,,,비금속 광물제품 제조업,,,23322.0,,일반,,3.0,,,2015.0,4.0,16.0,,,,레미콘,,,,2020.0,,4721.0,,,,,,2977.0,,,,,,,,,,,,,,,,,,,,기업체총람,2022,,
402806,,,,,(자)삼원기업,김명한,,,,,,,,,,우) 27125,,,,,,,,,,충북,제천시 송학면 입석리 96-1,37.2103267,128.2950586,,,,,,,,,0436484901,,436484902.0,,고무 및 플라스틱제품 제조업,,,22190.0,,일반,,8.0,,,1993.0,2.0,11.0,,,,"콘베어벨트 제작 도소매 설비 수리 콘베어벨트,로라,벨트접착 제조,설비,설치 고무벨트(콤베어)설비 및 수리업 콘베어벨트 제작 및 설치업 위항에 부수되는 사업일체",,,,,,,,,,,,,,,,,,,,,,,,,,,,,,,,조사모집단통합자료,2022,,
398470,,,,,(자)해룡,곽사해,,,,,,,,,,우) 28213,,,,,,,,,,충북,"청주시 서원구 현도면 죽암리 산37-3, 167-1",36.529449,127.4450528,,,,,,,,,0432605225,,432605226.0,,비금속광물 광업; 연료용 제외,,,7120.0,,일반,,18.0,,,1992.0,5.0,27.0,,,,쇄석 골재 자갈 모래 토사석 채취 토석채취 및 골재 판매업 건설 공사업 준설 공사업,,,,2012.0,,4450.0,,,,,,7504.0,,,,,,,,,,,,,,,,,,,,기업체총람,2022,,
398562,,,,,(주)광운전력,전영준,,,,,,,,,,우) 28292,,,,,,,,,,충북,청주시 흥덕구 신정로36번길 10,36.6655365,127.4612644,,,,,,,,,0432762364,,432762365.0,,전문직별 공사업,,,42310.0,,일반,,8.0,,,2005.0,7.0,1.0,,,,전기공사업 전기 공사업 전기공사,,,,,,,,,,,,,,,,,,,,,,,,,,,,,,,,기업체총람,2022,,
395004,,,,,(주)그린개발,김영희,,,,,,,,,,우) 28038,,,,,,,,,,충북,괴산군 괴산읍 대덕리 99-4번지,36.8068201,127.8167117,,,,,,,,,0438340517,,438320513.0,,도매 및 상품 중개업,,,46612.0,,일반,,6.0,,,2008.0,12.0,5.0,,,,"건설용골재 생산,선별파쇄",,,,,,,,,,,,,,,,,,,,,,,,,,,,,,,,기업체총람,2022,,
403007,,,,,(주)길원테크,김미순,,,,,,,,,,우) 28291,,,,,,,,,,충북,청주시 흥덕구 문암로 256,36.6725584,127.4542483,,,,,,,,,0432778781,,432778783.0,,금속 가공제품 제조업; 기계 및 가구 제외,,,,,일반,,22.0,,,2005.0,5.0,1.0,,,www.cy-steel.co.kr,"금속구조물설치공사,창호공사,시설물유지공사,금속구조물,가로등,철물 제조",,,,2017.0,,7037.0,,,,,,6769.0,,,,,,,,,,,,,,,,,,,,조사모집단통합자료,2022,,
403015,,,,,(주)나눔시스템,"김용남,한효석",,,,,,,,,,우) 28119,,,,,,,,,,충북,"청주시 청원구 오창읍 중심상업로 14, 603-1",36.7121655,127.4302966,,,,,,,,,07040107997,,3033442799.0,,도매 및 상품 중개업,,,46699.0,,일반,,9.0,,,2008.0,5.0,6.0,,,,소프트웨어개발 토목자재전자조달 대행업,,,,,,,,,,,,,,,,,,,,,,,,,,,,,,,,조사모집단통합자료,2022,,
403025,,,,,(주)나리축산유통,손상국,,,,,,,,,,우) 28291,,,,,,,,,,충북,청주시 흥덕구 문암로 114-26,36.664941,127.4415175,,,,,,,,,0432177852,,432247852.0,,식료품 제조업,,,10129.0,,일반,,4.0,,,2012.0,9.0,1.0,,,,식육 가공,,,,2020.0,,4023.0,,,,,,1224.0,,,,,,,,,,,,,,,,,,,,조사모집단통합자료,2022,,
398706,,,,,(주)다우피앤지,양덕진,,,,,,,,,,,,,,,,,,,,충북,청주시 서원구 현도면 선동리 산33-1번지,36.4963694,127.4291168,,,,,,,,,0432694434,,432694436.0,,소매업; 자동차 제외,,,,,일반,,12.0,,,1992.0,11.0,1.0,,,,주유소운영 주유소업,,,,,,,,,,,,2744.0,,,,,,,,,,,,,,,,,,,,기업체총람,2022,,
398737,,,,,(주)대림기업,송석우,,,,,,,,,,우) 28293,,,,,,,,,,충북,"청주시 흥덕구 송화로 42-1, 104호",36.6612755,127.4394064,,,,,,,,,0432167177,,432167178.0,,전문직별 공사업,,,42411.0,,일반,,11.0,,,1998.0,10.0,12.0,,,,"도장공사,미장방수공사",,,,2017.0,,7188.0,,,,,,5169.0,,,,,,,,,,,,,,,,,,,,기업체총람,2022,,
403152,,,,,(주)대박산업,"이세호,김홍",,,,,,,,,,,,,,,,,,,,충북,진천군 문백면 도하리산2,36.7769339,127.4487349,,,,,,,,,04353278834,,435327885.0,,전기장비 제조업,,,28112.0,,일반,,20.0,,,2012.0,9.0,6.0,,,,변압기 제조,,,,2020.0,,4557.0,,,,,,5089.0,,,,,,,,,,,,,,,,,,,,조사모집단통합자료,2022,,
403230,,,,,(주)대한보안공사,허복희,,,,,,,,,,우) 28571,,,,,,,,,,충북,"청주시 흥덕구 직지대로620번길 53, 301호",36.6407447,127.4602062,,,,,,,,,0432733086,,432693060.0,,사업 지원 서비스업,,,75120.0,,일반,,116.0,,,2008.0,12.0,8.0,,,,,,,,,,,,,,,,,,,,,,,,,,,,,,,,,,,,조사모집단통합자료,2022,,
398943,,,,,(주)디앤아이,천인국,,,,,,,,,,우) 28553,,,,,,,,,,충북,"청주시 서원구 무심서로 537, 2층 202호",36.6390402,127.482377,,,,,,,,,0432746789,,432751532.0,,도매 및 상품 중개업,,,46510.0,,일반,,5.0,,,2014.0,11.0,24.0,,,www.ilovecom.kr,"컴퓨터,주변장치,소프트웨어 도소매",,,,2020.0,,2508.0,,,,,,1548.0,,,,,,,,,,,,,,,,,,,,기업체총람,2022,,
403415,,,,,(주)로컬피앤디,강태식,,,,,,,,,,우) 28501,,,,,,,,,,충북,"청주시 청원구 상당로 314, 348-1호",36.655975,127.4902475,,,,,,,,,07046032237,,234788613.0,,연구개발업,,,70112.0,,일반,,15.0,,,2012.0,4.0,24.0,,,www.localdesign.kr,"농어촌지역개발,조사용역,농어촌지역마케팅,농어촌활성화컨설팅,농어촌지역개발교육",,,,2016.0,,1244.0,,,,,,,,,,,,,,,,,,,,,,,,,,조사모집단통합자료,2022,,
403426,,,,,(주)리사,권호승,,,,,,,,,,우) 28160,,,,,,,,,,충북,"청주시 흥덕구 오송읍 오송생명3로 31, 204-2호",36.634919,127.3286182,,,,,,,,,025650680,,7088000019.0,,부동산업,,,68212.0,,일반,,8.0,,,2014.0,1.0,28.0,,,,부동산 관리,,,,2019.0,,1179.0,,,,,,8731.0,,,,,,,,,,,,,,,,,,,,조사모집단통합자료,2022,,
403550,,,,,(주)백년나무,민경묵,,,,,,,,,,우) 28167,,,,,,,,,,충북,청주시 흥덕구 오송읍 궁평길 85,36.620358,127.3323242,,,,,,,,,0432324180,,432334180.0,,식료품 제조업,,,10712.0,,일반,,6.0,,,2011.0,7.0,4.0,,,,제과 제조 및 판매업,,,,2014.0,,1110.0,,,,,,974.0,,,,,,,,,,,,,,,,,,,,조사모집단통합자료,2022,,
403609,,,,,(주)뷰티콜라겐,이경숙,,,,,,,,,,우) 28576,,,,,,,,,,충북,"청주시 흥덕구 공단로 134, 502,503,506호",36.6424832,127.4370226,,,,,,,,,0432126811,,432126814.0,,화학 물질 및 화학제품 제조업; 의약품 제외,,,20420.0,,일반,,10.0,,,2005.0,2.0,5.0,,,www.beauteecollagen.co.kr,"스킨 에센스 스킨,에센스 수출",,,,2020.0,,528.0,,,,,,2062.0,,,,,,,,,,,,,,,,,,,,조사모집단통합자료,2022,,
397627,,5358600475.0,,,(주)블랙스톤에듀팜리조트,원용권,,,,,,,,,,,,,,,,,,,,충북,증평군 도안면 벼루재길 512-15,36.8276286,127.6060578,,,,,,,,,0439261000,,439261054.0,"예술, 스포츠 및 여가관련 서비스업",스포츠 및 오락관련 서비스업,,,91121.0,,외감,,100.0,,,2016.0,9.0,5.0,,,,,,,,2020.0,12.0,10453.0,,,-6652.0,101000.0,-4932.0,185494.0,81765.0,103729.0,,,,,,,,,,,,,,,,,,기업체총람,2022,,
397878,,3018139687.0,,,(주)삼아벤처,"김상훈,주지홍",,,,,,,,,,,,,,,,,,,,충북,진천군 이월면 이덕로 566 (㈜삼아벤처),36.9181228,127.4824111,,,,,,,,,0435366525,,314360660.0,제조업,식료품 제조업,,,10742.0,,외감,,70.0,,,1999.0,11.0,26.0,,,www.samaventure.com,"식품첨가물 혼합조제조미료 라면 스낵용 혼합조제 조미료 제조 및 무역업 농축산물 엑기스,분말의 개발,생산 및 보급업",,,,2020.0,12.0,59411.0,,,1698.0,3100.0,2223.0,38897.0,13720.0,25178.0,,,,,,,,(주)삼아벤처,,,,,,,,,,기업체총람,2022,,
399473,,,,,(주)수인,조인주,,,,,,,,,,우) 28354,,,,,,,,,,충북,"청주시 청원구 2순환로410번길 54, , 156-2",36.6733612,127.4749405,,,,,,,,,0432334945,,432314945.0,,"전자 부품, 컴퓨터, 영상, 음향 및 통신장비 제조업",,,26299.0,,일반,,10.0,,,2005.0,6.0,29.0,,,,기타 전자부품 제조업,,,,2017.0,,1008.0,,,,,,,,,,,,,,,,,,,,,,,,,,기업체총람,2022,,
399487,,,,,(주)스카이모터스,최대웅,,,,,,,,,,우) 28292,,,,,,,,,,충북,청주시 흥덕구 송절동 54-4번지,36.6672695,127.4616522,,,,,,,,,0432766600,,432760058.0,,개인 및 소비용품 수리업,,,95211.0,,일반,,5.0,,,2006.0,11.0,10.0,,,,자동차 정비,,,,,,,,,,,,,,,,,,,,,,,,,,,,,,,,기업체총람,2022,,
403938,,,,,(주)시시엠코리아,박완배,,,,,,,,,,우) 28359,,,,,,,,,,충북,"청주시 흥덕구 강촌로 264, , 1,2층",36.6420701,127.3958323,,,,,,,,,0432110100,,432177582.0,,도매 및 상품 중개업,,,46441.0,,일반,,18.0,,,2002.0,5.0,14.0,,,,백신 감기약 의약품 도매업 식품 도매업 의료소모품 도매업 의료기기 도매업,,,,2018.0,,11369.0,,,,,,,,,,,,,,,,,,,,,,,,,,조사모집단통합자료,2022,,
399520,,,,,(주)신승산업,김태길,,,,,,,,,,우) 28105,,,,,,,,,,충북,청주시 청원구 오창읍 후기길 90-18,36.7345887,127.3919866,,,,,,,,,0432606292,,432606293.0,,도매 및 상품 중개업,,,46791.0,,일반,,7.0,,,2012.0,11.0,26.0,,,,"고철,비철 도소매,금속구조물 제조",,,,,,,,,,,,,,,,,,,,,,,,,,,,,,,,기업체총람,2022,,
399573,,,,,(주)씨드모젠,박기랑,,,,,,,,,,우) 28578,,,,,,,,,,충북,"청주시 흥덕구 직지대로 530, 508, 307, 309-1, 702호",36.6431725,127.4519081,,,,,,,,,0432312277,,,,의료용 물질 및 의약품 제조업,,,21102.0,,일반,,31.0,,,2015.0,11.0,25.0,,,,"생물학적 제제,기술 시험,검사 및 분석업",,,,2020.0,,2184.0,,,,,,6360.0,,,,,,,,,,,,,,,,,,,,기업체총람,2022,,
399650,,,,,(주)알파코리아,스나하라히데토시,,,,,,,,,,우) 28119,,,,,,,,,,충북,"청주시 청원구 오창읍 중심상업로 20, 201-3호",36.7125276,127.4302562,,,,,,,,,0432128411,,,,자동차 및 부품 판매업,,,45219.0,,일반,,1.0,,,2013.0,6.0,14.0,,,,"자동차부품,기계부품,다이캐스트제품,금형,지공구 도매,무역",,,,2020.0,,4011.0,,,,,,1215.0,,,,,,,,,,,,,,,,,,,,기업체총람,2022,,
399674,,,,,(주)에스디,오재균,,,,,,,,,,우) 28134,,,,,,,,,,충북,청주시 청원구 북이면 장양리 393번지,36.7639509,127.5290524,,,,,,,,,0432129816,,432125015.0,,"폐기물 수집, 운반, 처리 및 원료 재생업",,,38322.0,,일반,,16.0,,,2011.0,5.0,1.0,,,,PVC재생원료 제조,,,,,,,,,,,,,,,,,,,,,,,,,,,,,,,,기업체총람,2022,,
397958,,,,,(주)에스알산업,이광선,,,,,,,,,,우) 27856,,,,,,,,,,충북,"진천군 덕산읍 화상리 455-1번지, 455-2, 455-3, 738, 740",36.8884802,127.5001169,,,,,,,,,0438788278,,,,"폐기물 수집, 운반, 처리 및 원료 재생업",,,38322.0,,일반,,3.0,,,2015.0,10.0,6.0,,,,비금속원료 재생업,,,,2017.0,,1430.0,,,,,,2962.0,,,,,,,,,,,,,,,,,,,,기업체총람,2022,,
399695,,,,,(주)에스엘파워,신진형,,,,,,,,,,우) 28127,,,,,,,,,,충북,"청주시 청원구 오창읍 여천3길 256, 1,2층",36.7721866,127.5052677,,,,,,,,,0432410071,,432410072.0,,전기장비 제조업,,,28202.0,,일반,,9.0,,,2016.0,1.0,21.0,,,,,,,,,,,,,,,,1754.0,,,,,,,,,,,,,,,,,,,,기업체총람,2022,,
399703,,,,,(주)에스엠이엔지,육지웅,,,,,,,,,,우) 28553,,,,,,,,,,충북,"청주시 서원구 무심서로 525, 2층",36.638196,127.4826222,,,,,,,,,0432667322,,432675101.0,,"건축 기술, 엔지니어링 및 기타 과학기술 서비스업",,,72129.0,,일반,,,,,2012.0,2.0,14.0,,,,,,,,,,,,,,,,660.0,,,,,,,,,,,,,,,,,,,,기업체총람,2022,,
399707,,,,,(주)에스와이신도시개발,손종구,,,,,,,,,,우) 28150,,,,,,,,,,충북,청주시 청원구 내수읍 도원세교로 59-36 201,36.7124597,127.5452455,,,,,,,,,0432353581,,,,부동산업,,,68121.0,,외감,,4.0,,,2015.0,2.0,1.0,,,,,,,,2020.0,,480.0,,,,,,4506.0,,,,,,,,,,,,,,,,,,,,기업체총람,2022,,
399725,,,,,(주)에이스타일,장재연,,,,,,,,,,우) 28190,,,,,,,,,,충북,"청주시 상당구 남일면 단재로 707-2, ,490-3,490-4,490-5,490-6",36.5687173,127.5110284,,,,,,,,,0432218081,,,,도매 및 상품 중개업,,,46699.0,,일반,,,,,2013.0,1.0,2.0,,,,"타일,위생도기,무역",,,,,,,,,,,,1115.0,,,,,,,,,,,,,,,,,,,,기업체총람,2022,,
404164,,,,,(주)에이치엔에스,류두열,,,,,,,,,,우) 28359,,,,,,,,,,충북,"청주시 흥덕구 직지대로 216-3, 1",36.6451683,127.4168009,,,,,,,,,0432663939,,432663940.0,,기타 기계 및 장비 제조업,,,29271.0,,일반,,,,,2015.0,8.0,20.0,,,,반도체 제조용 기계 제조업,,,,,,,,,,,,660.0,,,,,,,,,,,,,,,,,,,,조사모집단통합자료,2022,,
404186,,,,,(주)에코프로텍,방병훈,,,,,,,,,,우) 28420,,,,,,,,,,충북,"청주시 흥덕구 가로수로 1251, 302-1호",36.6333058,127.4315622,,,,,,,,,0432919909,,432929909.0,,기타 기계 및 장비 제조업,,,29175.0,,일반,,5.0,,,2015.0,1.0,2.0,,,www.eco-protect.co.kr/,"수처리장치 제조,절수기 도소매",,,,2017.0,,547.0,,,,,,1087.0,,,,,,,,,,,,,,,,,,,,조사모집단통합자료,2022,,
404402,,,,,(주)원일바이오,한제근,,,,,,,,,,우) 27159,,,,,,,,,,충북,"제천시 바이오밸리2로 41, 1관 111호)",37.1513536,128.167767,,,,,,,,,0436488878,,436518878.0,,화학 물질 및 화학제품 제조업; 의약품 제외,,,20423.0,,일반,,17.0,,,2011.0,5.0,21.0,,,www.wonilbio.com,"건강식품 도,소매업",,,,2020.0,,3080.0,,,,,,3539.0,,,,,,,,,,,,,,,,,,,,조사모집단통합자료,2022,,
399961,,,,,(주)원창,홍순호,,,,,,,,,,우) 28181,,,,,,,,,,충북,청주시 서원구 남이면 가좌리 산47번지,36.5759516,127.4611985,,,,,,,,,0432843605,,432843607.0,,도매 및 상품 중개업,,,46612.0,,일반,,1.0,,,2012.0,7.0,13.0,,,,"골재 도매,면직물 제조",,,,2017.0,,2806.0,,,,,,4334.0,,,,,,,,,,,,,,,,,,,,기업체총람,2022,,
399991,,,,,(주)유비콤,박경화,,,,,,,,,,우) 28116,,,,,,,,,,충북,"청주시 청원구 오창읍 양청4길 45, 비522호 비526호 비528호 씨542호",36.7290857,127.437755,,,,,,,,,0432708071,,432708041.0,,"전자 부품, 컴퓨터, 영상, 음향 및 통신장비 제조업",,,26429.0,,일반,,12.0,,,2010.0,3.0,2.0,,,www.youbicom.com,"원격검침시스템 유무선 통신기기. 위성통신기기 개발,제조 및 판매업",,,,2020.0,,3144.0,,,,,,4223.0,,,,,,,,,,,,,,,,,,,,기업체총람,2022,,
404462,,,,,(주)은광전자,김일두,,,,,,,,,,우) 28437,,,,,,,,,,충북,청주시 흥덕구 송절로 14 (봉명동),36.6589468,127.4563982,,,,,,,,,0432765601,,432765604.0,,"건축 기술, 엔지니어링 및 기타 과학기술 서비스업",,,72919.0,,일반,,55.0,,,2006.0,7.0,1.0,,,,PCB검사 PCB검사 기타 전자부품 플라스틱제품 제조,,,,2014.0,,3962.0,,,,,,3157.0,,,,,,,,,,,,,,,,,,,,조사모집단통합자료,2022,,
396458,,,,,(주)음성진하누,정용근,,,,,,,,,,우) 27659,,,,,,,,,,충북,"음성군 대소면 대금로 165-18, 다동 6열 2호",36.9832515,127.4672368,,,,,,,,,0438838985,,438838986.0,,도매 및 상품 중개업,,,46313.0,,일반,,1.0,,,2012.0,11.0,26.0,,,,,,,,2018.0,,4703.0,,,,,,4846.0,,,,,,,,,,,,,,,,,,,,기업체총람,2022,,
404730,,,,,(주)지티씨9,장수혁,,,,,,,,,,우) 28292,,,,,,,,,,충북,청주시 흥덕구 신정로81번길 45-18,36.6629262,127.455923,,,,,,,,,07088670526,,437105980.0,,전기장비 제조업,,,28422.0,,일반,,2.0,,,2015.0,1.0,1.0,,,,LED전기조명 제조,,,,,,,,,,,,463.0,,,,,,,,,,,,,,,,,,,,조사모집단통합자료,2022,,
400317,,,,,(주)지티엠컨설팅,이은록,,,,,,,,,,우) 28119,,,,,,,,,,충북,"청주시 청원구 오창읍 중심상업로 14, 404-1호",36.7121655,127.4302966,,,,,,,,,0432331912,,432331914.0,,"건축 기술, 엔지니어링 및 기타 과학기술 서비스업",,,72919.0,,일반,,6.0,,,2011.0,1.0,24.0,,,,학술연구업,,,,2016.0,,354.0,,,,,,,,,,,,,,,,,,,,,,,,,,기업체총람,2022,,
404751,,,,,(주)진양에너지,김학관,,,,,,,,,,우) 27678,,,,,,,,,,충북,음성군 대소면 한삼로91번길 29-16,36.9423521,127.4915498,,,,,,,,,0438820840,,438820839.0,,도매 및 상품 중개업,,,46712.0,,일반,,12.0,,,2000.0,11.0,3.0,,,www.pilliptech.co.kr,등유 경품기 부착된 노래방기기 판매업 경품 판매업 카드 판매업 광고 서비스업,,,,,,,,,,,,7498.0,,,,,,,,,,,,,,,,,,,,조사모집단통합자료,2022,,
395751,,,,,(주)청양식품,이지연,,,,,,,,,,우) 29057,,,,,,,,,,충북,"옥천군 옥천읍 서대구일로 100-35, (주)청양식품",36.2861762,127.5943829,,,,,,,,,0437336563,,,,식료품 제조업,,,10799.0,,일반,,14.0,,,2014.0,3.0,25.0,,,,"식료품,수입식품 제조,도소매,무역",,,,2020.0,,5730.0,,,,,,6186.0,,,,,,,,,,,,,,,,,,,,기업체총람,2022,,
400388,,,,,(주)청운,한순동,,,,,,,,,,우) 28174,,,,,,,,,,충북,"청주시 흥덕구 강내면 태성리69-1,77-2",36.5874266,127.3545236,,,,,,,,,0432310623,,432320037.0,,기타 기계 및 장비 제조업,,,29294.0,,일반,,29.0,,,2010.0,1.0,15.0,,,www.cwpipe.co.kr,"플라스틱사출성형,금속탱크,저장용기,건축자재 제조",,,,2020.0,,7687.0,,,,,,9217.0,,,,,,,,,,,,,,,,,,,,기업체총람,2022,,
404815,,,,,(주)청운관광여행사,김대환,,,,,,,,,,우) 28180,,,,,,,,,,충북,"청주시 서원구 남이면 대림로 125,84-1번지",36.5832113,127.4436609,,,,,,,,,0432602044,,432602046.0,,육상 운송 및 파이프라인 운송업,,,49232.0,,일반,,18.0,,,2000.0,8.0,14.0,,,,여행사업,,,,,,,,,,,,,,,,,,,,,,,,,,,,,,,,조사모집단통합자료,2022,,
404880,,,,,(주)충주호관광선,권이섭,,,,,,,,,,,,,,,,,,,,충북,충주시 동량면 화암리 산11-1번지,36.9973703,128.0096558,,,,,,,,,0438510362,,438511621.0,,수상 운송업,,,50201.0,,일반,,46.0,,,1988.0,4.0,1.0,,,www.chungjuho.com,관광선운행 내륙수상(운수) 내륙수상여객운송(충주호 단양호 유람선 운영) 매장 운영,,,,2017.0,,4177.0,,,,,,5274.0,,,,,,,,,,,,,,,,,,,,조사모집단통합자료,2022,,
400447,,,,,(주)충청,최민진,,,,,,,,,,우) 28420,,,,,,,,,,충북,"청주시 흥덕구 가로수로 1251, 302-2호",36.6333058,127.4315622,,,,,,,,,0432145759,,5040455759.0,,고무 및 플라스틱제품 제조업,,,22229.0,,일반,,2.0,,,2019.0,10.0,1.0,,,,,,,,,,,,,,,,434.0,,,,,,,,,,,,,,,,,,,,기업체총람,2022,,
404935,,3038124119.0,,,(주)코스메카코리아,"조임래,박은희",,,,,,,,,,우) 27670,,,,,,,,,,충북,"음성군 대소면 대금로 196번길 17-12, 17-9",36.9780128,127.4657587,,,,,,,,,0435357161,,435357164.0,제조업,화학 물질 및 화학제품 제조업; 의약품 제외,,,20423.0,,코스,,523.0,,,1999.0,10.0,5.0,,,www.cosmecca.com,기초화장품 색조화장품 기능성화장품 화장품 제조 및 판매업 수출입업(화장품) 의약부외품,,,,2020.0,12.0,197146.0,,,5602.0,5340.0,10544.0,258599.0,137454.0,121145.0,,,,,,,,코스메카코리아,,,,,,,,,,조사모집단통합자료,2022,,
404964,,,,,(주)타스코엔지니어링,유영주,,,,,,,,,,우) 28291,,,,,,,,,,충북,청주시 흥덕구 문암로 144,36.666664,127.4448482,,,,,,,,,0432781003,,432659319.0,,전기장비 제조업,,,28123.0,,일반,,10.0,,,2016.0,10.0,20.0,,,,,,,,,,,,,,,,98.0,,,,,,,,,,,,,,,,,,,,조사모집단통합자료,2022,,
404965,,3038108517.0,,,(주)타이가,"조병욱,박옥연",,,,,,,,,,우) 27319,,,,,,,,,,충북,충주시 동량면 대전리 1길 86-6,37.0482252,127.9461206,,,,,,,,,0438513871,,438513872.0,제조업,섬유제품 제조업; 의복 제외,,,13224.0,,외감,,36.0,,,1978.0,7.0,14.0,,,www.tiger.co.kr,"캔버스제품,천막(막구조물,유리섬유 천막,에어돔),조립식구조물,지붕판금,금속구조물 제조,천막 임대",,,,2020.0,12.0,8435.0,,,114.0,1300.0,399.0,18442.0,5083.0,13359.0,,,,,,,,,,,,,,,,,,조사모집단통합자료,2022,,
400552,,,,,(주)태성이앤씨,김광진,,,,,,,,,,우) 28291,,,,,,,,,,충북,청주시 흥덕구 원터로 122,36.6676789,127.445913,,,,,,,,,0432350481,,432390480.0,,전문직별 공사업,,,42420.0,,일반,,5.0,,,2011.0,5.0,20.0,,,,"금속창호공사,철근콘트리트공사,미장방수공사",,,,2014.0,,1276.0,,,,,,504.0,,,,,,,,,,,,,,,,,,,,기업체총람,2022,,
404989,,,,,(주)태양기술사사무소,임흥순,,,,,,,,,,우) 28771,,,,,,,,,,충북,"청주시 상당구 용암로99번길 37, 673-1 2층",36.6146344,127.5024317,,,,,,,,,0432884691,,432884692.0,,"건축 기술, 엔지니어링 및 기타 과학기술 서비스업",,,72129.0,,일반,,16.0,,,2002.0,11.0,6.0,,,,건축관련 기술 서비스 전기설계 감리,,,,2020.0,,412.0,,,,,,294.0,,,,,,,,,,,,,,,,,,,,조사모집단통합자료,2022,,
402366,,,,,(주)태원전업공사,전세진,,,,,,,,,,우) 27441,,,,,,,,,,충북,"충주시 새말4길 12, 303-3 (칠금동)",36.983604,127.9051538,,,,,,,,,0438451560,,438484240.0,,전문직별 공사업,,,42311.0,,일반,,8.0,,,2003.0,3.0,5.0,,,,전기공사 일반전기 공사업 전기공사,,,,2016.0,,1499.0,,,,,,1780.0,,,,,,,,,,,,,,,,,,,,기업체총람,2022,,
400599,,,,,(주)티비씨,이기형,,,,,,,,,,우) 28171,,,,,,,,,,충북,"청주시 흥덕구 강내면 월곡길 38, 제1생활관 115호",36.6209098,127.3676496,,,,,,,,,0432302616,,432302169.0,,도매 및 상품 중개업,,,,,일반,,1.0,,,2011.0,6.0,9.0,,,,"셋톱박스 정보통신 및 전자기기 도,소매업",,,,2020.0,,1496.0,,,,,,514.0,,,,,,,,,,,,,,,,,,,,기업체총람,2022,,
400659,,,,,(주)플렉스로직,박상규,,,,,,,,,,우) 28576,,,,,,,,,,충북,"청주시 흥덕구 공단로 134, 1403, 1404호",36.6424832,127.4370226,,,,,,,,,0432640833,,,,"의료, 정밀, 광학 기기 및 시계 제조업",,,27219.0,,일반,,7.0,,,2017.0,1.0,1.0,,,,"기타 측정,시험,항해,제어 및 정밀기기 제조업",,,,2020.0,,1377.0,,,,,,1164.0,,,,,,,,,,,,,,,,,,,,기업체총람,2022,,
400868,,,,,(주)후레쉬팜,이재근,,,,,,,,,,우) 28291,,,,,,,,,,충북,청주시 흥덕구 문암로 158,36.6680548,127.4454294,,,,,,,,,0432155017,,,,도매 및 상품 중개업,,,46313.0,,일반,,8.0,,,2015.0,1.0,23.0,,,,,,,,,,,,,,,,,,,,,,,,,,,,,,,,,,,,기업체총람,2022,,
405378,,,,,광교건설(주),윤노선,,,,,,,,,,우) 28111,,,,,,,,,,충북,청주시 흥덕구 옥산면 국사길 306-46,36.67963,127.3930736,,,,,,,,,0536506033,,536506035.0,,종합 건설업,,,41220.0,,일반,,5.0,,,2000.0,9.0,6.0,,,,,,,,,,,,,,,,,,,,,,,,,,,,,,,,,,,,조사모집단통합자료,2022,,
398237,,,,,농업회사법인농장오리(주),조경애,,,,,,,,,,우) 27826,,,,,,,,,,충북,진천군 진천읍 금사로 396,36.8248959,127.4098429,,,,,,,,,0435335245,,,,농업,,,1239.0,,일반,,1.0,,,2010.0,2.0,23.0,,,,오리사육,,,,,,,,,,,,1831.0,,,,,,,,,,,,,,,,,,,,기업체총람,2022,,
400993,,,,,농업회사법인명품축산물도매센터(주),김국환,,,,,,,,,,우) 28450,,,,,,,,,,충북,"청주시 흥덕구 백봉로 254, 16-20호",36.6487026,127.4645778,,,,,,,,,0432209235,,432748794.0,,도매 및 상품 중개업,,,46313.0,,일반,,7.0,,,2011.0,8.0,9.0,,,,"축산물 도매,식육포장처리 제조",,,,,,,,,,,,2666.0,,,,,,,,,,,,,,,,,,,,기업체총람,2022,,
401007,,,,,농업회사법인이뮨포크(주),정명숙,,,,,,,,,,우) 28119,,,,,,,,,,충북,"청주시 청원구 오창읍 중심상업로 14, 503-2호",36.7121655,127.4302966,,,,,,,,,0437156930,,,,농업,,,1220.0,,일반,,,,,2017.0,9.0,11.0,,,,,,,,2018.0,,4586.0,,,,,,6561.0,,,,,,,,,,,,,,,,,,,,기업체총람,2022,,
405558,,,,,농업회사법인청우람(주),김우중,,,,,,,,,,우) 27659,,,,,,,,,,충북,"음성군 대소면 대금로 165-18, 다동5열5호",36.9832515,127.4672368,,,,,,,,,07040624135,,437111502.0,,도매 및 상품 중개업,,,,,일반,,,,,2018.0,5.0,17.0,,,,"식육 판매,포장처리,무역",,,,2020.0,,6206.0,,,,,,337.0,,,,,,,,,,,,,,,,,,,,조사모집단통합자료,2022,,
405683,,2128140263.0,,,대창이엔지(주),"박희민,안창모",,,,,,,,,,우) 27662,,,,,,,,,,충북,음성군 대소면 소석로 82 (소석리)304,36.9653742,127.5092099,,,,,,,,,0438778258,,438810180.0,제조업,금속 가공제품 제조업; 기계 및 가구 제외,,,,,외감,,72.0,,,1998.0,9.0,21.0,,,www.daechangcorp.com,"교량용교좌장치,강주물주조,신축이음장치,방음벽,잡철물,안전난간 제조,도매,오파,철물공사",,,,2020.0,12.0,24817.0,,,623.0,600.0,723.0,23223.0,17149.0,6074.0,,,,,,,,,,,,,,,,,,조사모집단통합자료,2022,,
405716,,,,,도안농업기계(주),박노식,,,,,,,,,,우) 27916,,,,,,,,,,충북,"증평군 증평읍 하평로 31-5, 195-1",36.7935675,127.6033155,,,,,,,,,0438387385,,438369685.0,,기타 기계 및 장비 제조업,,,29210.0,,일반,,6.0,,,2006.0,6.0,28.0,,,doanfm.co.kr,농업용 기계,,,,,,,,,,,,,,,,,,,,,,,,,,,,,,,,조사모집단통합자료,2022,,
405719,,,,,도원테크(주),박문규,,,,,,,,,,우) 28128,,,,,,,,,,충북,"청주시 청원구 오창읍 두릉유리로 1323-36, 1323-38",36.7544613,127.4685649,,,,,,,,,0432132330,,432132331.0,,기타 기계 및 장비 제조업,,,29294.0,,일반,,14.0,,,2010.0,8.0,4.0,,,,"프레스금형 제조,설계",,,,2020.0,,1967.0,,,,,,2815.0,,,,,,,,,,,,,,,,,,,,조사모집단통합자료,2022,,
405727,,,,,동국건설(주),이광희,,,,,,,,,,우) 28729,,,,,,,,,,충북,"청주시 상당구 중고개로243번길 4, 2층",36.6247546,127.5103862,,,,,,,,,0432863381,,432863384.0,,전문직별 공사업,,,42121.0,,일반,,19.0,,,1992.0,6.0,22.0,,,,"토공사,철근콘크리트공사,포장공사,상하수도공사",,,,2015.0,,4206.0,,,,,,2158.0,,,,,,,,,,,,,,,,,,,,조사모집단통합자료,2022,,
396833,,,,,동우스틸(주),배경희,,,,,,,,,,,,,,,,,,,,충북,음성군 감곡면 문촌리 산332-2번지,37.1193081,127.7004329,,,,,,,,,07070184166,,318834167.0,,금속 가공제품 제조업; 기계 및 가구 제외,,,25110.0,,일반,,5.0,,,2005.0,11.0,16.0,,,,종합 건설,,,,,,,,,,,,1245.0,,,,,,,,,,,,,,,,,,,,기업체총람,2022,,
396848,,,,,라이프안전유리(주),오경호,,,,,,,,,,우) 27653,,,,,,,,,,충북,"음성군 삼성면 금일로700번길 20, 15",37.0166923,127.5167961,,,,,,,,,04388183312,,438812887.0,,비금속 광물제품 제조업,,,23111.0,,일반,,41.0,,,1994.0,2.0,1.0,,,,강화유리 강화유리 접합유리 복층유리 강화유리 제조 강화유리 제조,,,,2017.0,,10255.0,,,,,,,,,,,,,,,,,,,,,,,,,,기업체총람,2022,,
405850,,,,,민강(주),"최정민,최영전",,,,,,,,,,우) 28528,,,,,,,,,,충북,"청주시 상당구 남사로 73-11, 가동 8,9,10,12,13호, 나동 14,15호",36.6323699,127.4832453,,,,,,,,,0438368225,,438362283.0,,도매 및 상품 중개업,,,46311.0,,일반,,2.0,,,2012.0,1.0,15.0,,,,농산물 도소매,,,,2016.0,,4344.0,,,,,,1342.0,,,,,,,,,,,,,,,,,,,,조사모집단통합자료,2022,,
405928,,,,,삼삼유통(유),박용호,,,,,,,,,,우) 27650,,,,,,,,,,충북,음성군 삼성면 상곡리781-1,37.0075836,127.453954,,,,,,,,,0438836285,,438837938.0,,도매 및 상품 중개업,,,46101.0,,일반,,1.0,,,2012.0,7.0,16.0,,,,,,,,,,,,,,,,647.0,,,,,,,,,,,,,,,,,,,,조사모집단통합자료,2022,,
395438,,,,,새롬패널(주),백승재,,,,,,,,,,,,,,,,,,,,충북,보은군 삼승면 우진리 보은산업단지(2공구)내 산업시설용지 20-1블럭,36.4278983,127.735287,,,,,,,,,024021225,,,,기타 제품 제조업,,,33999.0,,일반,,,,,2011.0,12.0,19.0,,,,,,,,2018.0,,16955.0,,,,,,6490.0,,,,,,,,,,,,,,,,,,,,기업체총람,2022,,
406069,,,,,속리산개발(주),"윤진섭,윤석한",,,,,,,,,,우) 28908,,,,,,,,,,충북,보은군 속리산면 사내리 198번지,36.5336205,127.8252379,,,,,,,,,0435425281,,435425198.0,,숙박업,,,55101.0,,일반,,36.0,,,1976.0,10.0,1.0,,,www.lakehills.co.kr,호텔운영 관광호텔업(1급) 관광호텔 음식점,,,,2018.0,,2378.0,,,,,,,,,,,,,,,,,,,,,,,,,,조사모집단통합자료,2022,,
406102,,,,,신성자원(주),강경일,,,,,,,,,,우) 28181,,,,,,,,,,충북,"청주시 서원구 남이면 가좌리 199번지, 201-2",36.5737173,127.4619421,,,,,,,,,04329877212,,432837721.0,,"폐기물 수집, 운반, 처리 및 원료 재생업",,,38322.0,,일반,,16.0,,,1999.0,6.0,29.0,,,,종이재생처리업 폐지 재생용 재료 수집 및 판매업,,,,2018.0,,8210.0,,,,,,5444.0,,,,,,,,,,,,,,,,,,,,조사모집단통합자료,2022,,
406153,,,,,아벨정밀(주),"연제욱,연세흠",,,,,,,,,,우) 27905,,,,,,,,,,충북,증평군 도안면 석곡리 268번지,36.817127,127.6262756,,,,,,,,,04383833912,,438383393.0,,"전자 부품, 컴퓨터, 영상, 음향 및 통신장비 제조업",,,26292.0,,일반,,18.0,,,1996.0,1.0,9.0,,,www.abelpre.co.kr,산화금속피막 고정저항기 등 탄소피막고정저항기 금속피막 고정저항기 저항기 코일 인덕터 휴즈저항 전자부품 제조 전자저항기 제조,,,,2020.0,,1651.0,,,,,,2339.0,,,,,,,,,,,,,,,,,,,,조사모집단통합자료,2022,,
406246,,,,,영광기업(주),장순경,,,,,,,,,,우) 28569,,,,,,,,,,충북,청주시 흥덕구 직지대로556번길 22 (봉명동),36.6422244,127.4543194,,,,,,,,,0432745591,,432645591.0,,전문직별 공사업,,,42202.0,,일반,,11.0,,,1997.0,1.0,3.0,,,www.yken.co.kr,"기계설비공사,가스시설공사,상하수도공사,철물공사,철근콘크리트공사,토공사,일반건축공사,가스집단공급,산업기계 제조",,,,2015.0,,2883.0,,,,,,2563.0,,,,,,,,,,,,,,,,,,,,조사모집단통합자료,2022,,
406312,,3018112427.0,,,우일상사(주),반채우,,,,,,,,,,우) 28111,,,,,,,,,,충북,청주시 흥덕구 옥산면 국사길 213,36.6862911,127.3880342,,,,,,,,,0432603230,,432603229.0,도매 및 소매업,도매 및 상품 중개업,,,46203.0,,외감,,11.0,,,1976.0,1.0,22.0,,,www.wooillkorea.com,"건초사료 건초사료 사료 도소매,무역 사료 도소매 무역",,,,2020.0,12.0,38395.0,,,617.0,450.0,587.0,15266.0,5033.0,10233.0,,,,,,,,,,,,,,,,,,조사모집단통합자료,2022,,
401579,,,,,우진교통(주),김재수,,,,,,,,,,,,,,,,,,,,충북,청주시 상당구 1순환로 1384번 가길 4(용암동),36.626165,127.5375545,,,,,,,,,0432974011,,432974010.0,,육상 운송 및 파이프라인 운송업,,,49212.0,,외감,,346.0,,,2001.0,1.0,1.0,,,www.wjbus.co.kr,시내버스운송,,,,2020.0,,23077.0,,,,,,24057.0,,,,,,,,,,,,,,,,,,,,기업체총람,2022,,
406364,,,,,이루산업(주),김용진,,,,,,,,,,우) 28169,,,,,,,,,,충북,"청주시 흥덕구 오송읍 동평서평길 88-84, 88-94, 88-96",36.5980816,127.3152531,,,,,,,,,0432369301,,432369302.0,,비금속 광물제품 제조업,,,23324.0,,일반,,3.0,,,2008.0,5.0,15.0,,,,"시멘트제조 판매 시멘트,석회,플라스터",,,,2015.0,,1102.0,,,,,,,,,,,,,,,,,,,,,,,,,,조사모집단통합자료,2022,,
397014,,,,,자연콘크리트(주),한천숙,,,,,,,,,,우) 27685,,,,,,,,,,충북,"음성군 음성읍 음성로367번길 13, 461-2,461-3",36.939074,127.6547985,,,,,,,,,0438362070,,438380047.0,,비금속 광물제품 제조업,,,23324.0,,일반,,4.0,,,2005.0,12.0,23.0,,,www.jayeoncon.co.kr,콘크리트시멘플라스터 콘크리트블럭 맨홀 제조 콘크리트 및 조립구조재 제조업,,,,2020.0,,987.0,,,,,,1551.0,,,,,,,,,,,,,,,,,,,,기업체총람,2022,,
401692,,,,,중부약품(주),김병선,,,,,,,,,,우) 28763,,,,,,,,,,충북,"청주시 상당구 중고개로 197, 3,4층",36.6215015,127.5137166,,,,,,,,,0432868760,,432868763.0,,종합 건설업,,,41220.0,,일반,,14.0,,,1998.0,5.0,27.0,,,,"토목공사,건축공사,배관공사",,,,2014.0,,185.0,,,,,,,,,,,,,,,,,,,,,,,,,,기업체총람,2022,,
406506,,,,,진성섬유(주),연명숙,,,,,,,,,,,,,,,,,,,,충북,진천군 문백면 구곡리 161번지,36.831045,127.488867,,,,,,,,,0435340003,,435340002.0,,섬유제품 제조업; 의복 제외,,,13104.0,,일반,,13.0,,,2000.0,12.0,26.0,,,www.jinsungtextile.kr,나일론웨빙 나일론연사 연사 웨빙 나일론원사 연사 나일론사 제조 도매 섬유 제조업,,,,2017.0,,13122.0,,,,,,8030.0,,,,,,,,,,,,,,,,,,,,조사모집단통합자료,2022,,
406563,,3018104418.0,,,청주개발(주),임재풍,,,,,,,,,,,,,,,,,,,,충북,청주시 청원구 오창읍 꽃화산길 14,36.7229126,127.3873369,,,,,,,,,0432127111,,432187115.0,"예술, 스포츠 및 여가관련 서비스업",스포츠 및 오락관련 서비스업,,,91121.0,,외감,,40.0,,,1984.0,11.0,1.0,,,www.grandglof.co.kr,골프장운영 골프장 운영업 골프장 수련원 임대 운영,,,,2020.0,12.0,18229.0,,,3979.0,1800.0,4555.0,78132.0,39712.0,38420.0,,,,,,,,,,,,,,,,,,조사모집단통합자료,2022,,
401835,,,,,트라이텍(주),김권식,,,,,,,,,,우) 28576,,,,,,,,,,충북,"청주시 흥덕구 공단로126번길 49, 조광산업 내 1층",36.642211,127.4397562,,,,,,,,,0432729301,,,,"전자 부품, 컴퓨터, 영상, 음향 및 통신장비 제조업",,,26221.0,,일반,,150.0,,,2011.0,10.0,1.0,,,,"PCB조립,전자부품 제조,검사",,,,,,,,,,,,,,,,,,,,,,,,,,,,,,,,기업체총람,2022,,
406726,,,,,한국넬슨제약(주),홍기수,,,,,,,,,,우) 27642,,,,,,,,,,충북,음성군 금왕읍 쌍봉리 114번지,37.0017096,127.5548599,,,,,,,,,0438774722,,438777128.0,,의료용 물질 및 의약품 제조업,,,21210.0,,일반,,40.0,,,1994.0,5.0,4.0,,,www.nelsonkorea.co.kr,전문의약품 일반의약품 대체조제의약품 의약품 제조업 국민건강진흥사업 의약품 소분 및 판매업 의약 부외품 제조 및 판매업,,,,,,,,,,,,,,,,,,,,,,,,,,,,,,,,조사모집단통합자료,2022,,
401896,,,,,한일전기이엔지(주),"김태찬,천정희",,,,,,,,,,우) 28471,,,,,,,,,,충북,"청주시 흥덕구 직지대로743번길 17, 1층",36.6443889,127.4747002,,,,,,,,,0432713377,,,,"건축 기술, 엔지니어링 및 기타 과학기술 서비스업",,,72919.0,,일반,,,,,2007.0,1.0,5.0,,,,,,,,2020.0,,852.0,,,,,,682.0,,,,,,,,,,,,,,,,,,,,기업체총람,2022,,
406823,,,,,혜강전력(주),김금자,,,,,,,,,,우) 28356,,,,,,,,,,충북,"청주시 흥덕구 내곡로 28, 2층",36.6615652,127.4286469,,,,,,,,,028666898,,28379922.0,,종합 건설업,,,41110.0,,일반,,12.0,,,2002.0,5.0,16.0,,,,전기공사 소방공사 주택건설업 전기공사업 조명기구판매업,,,,,,,,,,,,1287.0,,,,,,,,,,,,,,,,,,,,조사모집단통합자료,2022,,
404335,,,,,(주)우덕개발,채형근,,,,,,,,,,우) 28129,,,,,,,,,,충북,청주시 청원구 오창읍 오창시내4길 3-1,36.7418894,127.4567741,,,,,,,,,0432310011,,432316206.0,,전문직별 공사업,,,42121.0,,일반,,7.0,,,1998.0,12.0,4.0,,,,"토공사,철근콘크리트공사,상하수도공사",,,,2013.0,,1652.0,,,,,,1997.0,,,,,,,,,,,,,,,,,,,,조사모집단통합자료,2022,,
400715,,,,,(주)한광엔지니어링건축사사무소,정해념,,,,,,,,,,우) 28378,,,,,,,,,,충북,"청주시 흥덕구 서현중로 53-1, 501-1호",36.6232417,127.4280361,,,,,,,,,0432411612,,432411613.0,,"건축 기술, 엔지니어링 및 기타 과학기술 서비스업",,,72121.0,,일반,,40.0,,,2006.0,6.0,19.0,,,,엔지니어링서비스 토목설계 측량,,,,2015.0,,2936.0,,,,,,1622.0,,,,,,,,,,,,,,,,,,,,기업체총람,2022,,
416791,,,,,(주)경일그린텍,심언규,,,,,,,,,,우) 31931,,,,,,,,,,충남,"서산시 성연면 성연3로 161, 215,216호",36.8311791,126.4516424,,,,,,,,,0313345559,,313345596.0,,전기장비 제조업,,,28410.0,,일반,,5.0,,,2014.0,9.0,26.0,,,,"전구,조명장치,광고용조명장치 제조",,,,2020.0,,437.0,,,,,,1045.0,,,,,,,,,,,,,,,,,,,,조사모집단통합자료,2022,,
416822,,3128186633.0,,,(주)골드힐,이휘복,,,,,,,,,,우) 31056,,,,,,,,,,충남,천안시 서북구 입장면 기로3길 162(기로리),36.892064,127.2483576,,,,,,,,,0415851515,,415538705.0,부동산업,부동산업,,,68122.0,,외감,,1.0,,,2006.0,11.0,14.0,,,,"부동산 개발,공급,골프장 운영,관리",,,,2018.0,12.0,100.0,,,,,,,,,,,,,,,,,,,,,,,,,,조사모집단통합자료,2022,,
410903,,,,,(주)국제신뢰성평가센터,정현석,,,,,,,,,,우) 31538,,,,,,,,,,충남,"아산시 신창면 순천향로 22, 이103, 이104, 이204호",36.7697,126.931494,,,,,,,,,0414289490,,414289493.0,,"건축 기술, 엔지니어링 및 기타 과학기술 서비스업",,,72122.0,,일반,,7.0,,,2013.0,4.0,26.0,,,www.iira.co.kr,"신뢰성평가,환경시험평가",,,,2020.0,,1637.0,,,,,,2705.0,,,,,,,,,,,,,,,,,,,,기업체총람,2022,,
410082,,,,,(주)그린창호,김영호,,,,,,,,,,우) 32010,,,,,,,,,,충남,"서산시 수석순환로 45-7, , 17-1, 17-2",36.7790181,126.4972929,,,,,,,,,0416681522,,,,고무 및 플라스틱제품 제조업,,,22223.0,,일반,,,,,2011.0,6.0,21.0,,,,,,,,,,,,,,,,634.0,,,,,,,,,,,,,,,,,,,,기업체총람,2022,,
416937,,,,,(주)금호열처리,최부건,,,,,,,,,,우) 31758,,,,,,,,,,충남,"당진시 순성면 틀모시로 209-94, 외 3필지",36.8555813,126.7006232,,,,,,,,,0325620337,,325622683.0,,금속 가공제품 제조업; 기계 및 가구 제외,,,25921.0,,일반,,23.0,,,2008.0,4.0,1.0,,,,금속열처리 그외기타특수목적기계 금속 열처리업,,,,2017.0,,2587.0,,,,,,,,,,,,,,,,,,,,,,,,,,조사모집단통합자료,2022,,
413040,,,,,(주)네오테크,김상식,,,,,,,,,,우) 31040,,,,,,,,,,충남,"천안시 서북구 직산읍 4산단4로 27, 4공단",36.8628536,127.118781,,,,,,,,,04158492612,,415679260.0,,금속 가공제품 제조업; 기계 및 가구 제외,,,25999.0,,일반,,15.0,,,2010.0,8.0,17.0,,,www.neoteckor.co.kr,커버플레이트,,,,2018.0,,4451.0,,,,,,5350.0,,,,,,,,,,,,,,,,,,,,기업체총람,2022,,
417006,,,,,(주)논산종합폐차장,임형숙,,,,,,,,,,우) 32973,,,,,,,,,,충남,"논산시 계백로 1206-8, 750-1",36.2098633,127.1087702,,,,,,,,,0417356500,,417326001.0,,"폐기물 수집, 운반, 처리 및 원료 재생업",,,38311.0,,일반,,6.0,,,1987.0,12.0,1.0,,,,"폐차처리 재생용 재료 수집 및 판매업 일반폐기물,고철가공처리업,자동차내장품도 고철가공처리",,,,,,,,,,,,,,,,,,,,,,,,,,,,,,,,조사모집단통합자료,2022,,
417090,,,,,(주)대길엔지니어링,이학춘,,,,,,,,,,우) 32223,,,,,,,,,,충남,"홍성군 홍성읍 조양로 121-1, 2층",36.6024749,126.6635793,,,,,,,,,0416334334,,416334332.0,,"건축 기술, 엔지니어링 및 기타 과학기술 서비스업",,,72121.0,,일반,,6.0,,,2009.0,9.0,7.0,,,,토목설계 건축 및 조경 설계 서비스업,,,,2015.0,,452.0,,,,,,332.0,,,,,,,,,,,,,,,,,,,,조사모집단통합자료,2022,,
408644,,,,,(주)대성에코에너지센터,"김호석,김영중",,,,,,,,,,우) 31702,,,,,,,,,,충남,당진시 석문면 산단4로 379 (장고항리 1421),37.0121745,126.5901379,,,,,,,,,0314981456,,314981456.0,,"폐기물 수집, 운반, 처리 및 원료 재생업",,,38210.0,,외감,,45.0,,,2016.0,12.0,23.0,,,,,,,,2020.0,,132.0,,,,,,120458.0,,,,,,,,,,,,,,,,,,,,기업체총람,2022,,
417286,,,,,(주)동신산업,박광춘,,,,,,,,,,우) 33011,,,,,,,,,,충남,"논산시 연무읍 동안로950번길 63, , 579-4",36.1282368,127.1140016,,,,,,,,,0417423690,,417424690.0,,"건축 기술, 엔지니어링 및 기타 과학기술 서비스업",,,72919.0,,일반,,14.0,,,1991.0,12.0,1.0,,,www.dongseo.co.kr,LPG용기검사 설치용 금속탱크 및 저장용기 제조업 가스용기재생 LPG용기 제조,,,,2020.0,,8426.0,,,,,,7135.0,,,,,,,,,,,,,,,,,,,,조사모집단통합자료,2022,,
417310,,,,,(주)동양폐차장,전윤경,,,,,,,,,,우) 31224,,,,,,,,,,충남,천안시 동남구 목천읍 응원리 25-4번지,36.7706104,127.1924502,,,,,,,,,0415538891,,415565590.0,,"폐기물 수집, 운반, 처리 및 원료 재생업",,,38312.0,,일반,,5.0,,,2009.0,8.0,31.0,,,,중장비 폐차처리,,,,,,,,,,,,,,,,,,,,,,,,,,,,,,,,조사모집단통합자료,2022,,
411059,,,,,(주)동호테크,장형석,,,,,,,,,,우) 31411,,,,,,,,,,충남,"아산시 둔포면 관대안길 56, 60",36.9049035,127.0398613,,,,,,,,,0415311246,,415311247.0,,"의료, 정밀, 광학 기기 및 시계 제조업",,,27301.0,,일반,,17.0,,,2006.0,8.0,1.0,,,,기타기계장비 도매 카메라렌즈 제조,,,,2020.0,,3725.0,,,,,,3626.0,,,,,,,,,,,,,,,,,,,,기업체총람,2022,,
417418,,,,,(주)리얼바이오텍,"이재옥,권혁배",,,,,,,,,,우) 32610,,,,,,,,,,충남,공주시 탄천면 탄천산업단지길 83,36.3025015,127.0597099,,,,,,,,,04188131714,,418813170.0,,의료용 물질 및 의약품 제조업,,,21102.0,,일반,,13.0,,,2000.0,5.0,25.0,,,www.realbio.com,레반 과당이당체 생물소재(생산) 제조 기술연구개발 생물소재(다이어트원료생산) 제조,,,,2017.0,,370.0,,,,,,5835.0,,,,,,,,,,,,,,,,,,,,조사모집단통합자료,2022,,
417454,,,,,(주)메이플캐미칼,나근옥,,,,,,,,,,우) 32400,,,,,,,,,,충남,예산군 고덕면 예당산단2길 14-7,36.7695556,126.7193871,,,,,,,,,0413388633,,413388644.0,,고무 및 플라스틱제품 제조업,,,22250.0,,일반,,9.0,,,2016.0,3.0,21.0,,,,"스티로폼 제조,도소매",,,,2017.0,,7688.0,,,,,,3904.0,,,,,,,,,,,,,,,,,,,,조사모집단통합자료,2022,,
407631,,,,,(주)명성,조봉이,,,,,,,,,,우) 32700,,,,,,,,,,충남,금산군 진산면 웡골길 25,36.1752563,127.3440888,,,,,,,,,0417540066,,417540100.0,,기타 기계 및 장비 제조업,,,29170.0,,일반,,6.0,,,2000.0,11.0,14.0,,,www.myungsoung.co.kr,냉장쇼케이스,,,,2014.0,,140.0,,,,,,820.0,,,,,,,,,,,,,,,,,,,,기업체총람,2022,,
406950,,,,,(주)명품기획,김영랑,,,,,,,,,,우) 32801,,,,,,,,,,충남,계룡시 신도안면 남선리 1028번지 계룡대쇼핑타운,36.2955273,127.244568,,,,,,,,,0425511016,,,,도매 및 상품 중개업,,,46453.0,,일반,,1.0,,,2001.0,9.0,5.0,,,,,,,,2020.0,,287.0,,,,,,175.0,,,,,,,,,,,,,,,,,,,,기업체총람,2022,,
417484,,,,,(주)무나테크,정해수,,,,,,,,,,우) 31415,,,,,,,,,,충남,"아산시 음봉면 연암산로 88, 111-1호",36.8543319,127.0513221,,,,,,,,,025014977,,3030799147.0,,기타 기계 및 장비 제조업,,,29294.0,,일반,,5.0,,,2008.0,1.0,3.0,,,www.nanotechsys.com,"금형,초정밀 가공기 제조",,,,2017.0,,1127.0,,,,,,3838.0,,,,,,,,,,,,,,,,,,,,조사모집단통합자료,2022,,
407645,,,,,(주)벧엘육가공,전희정,,,,,,,,,,우) 32700,,,,,,,,,,충남,금산군 진산면 웡골길 10,36.175245,127.3454374,,,,,,,,,0417514934,,417523767.0,,식료품 제조업,,,10129.0,,일반,,35.0,,,2005.0,3.0,31.0,,,,돈육 비가공 식품 도매업,,,,2020.0,,30999.0,,,,,,11536.0,,,,,,,,,,,,,,,,,,,,기업체총람,2022,,
417686,,,,,(주)삼성주류,홍화식,,,,,,,,,,,,,,,,,,,,충남,천안시 서북구 두정공단2길 43-14,36.8334411,127.1433118,,,,,,,,,0415611090,,236657746.0,,도매 및 상품 중개업,,,46331.0,,일반,,8.0,,,1992.0,12.0,1.0,,,,"위스키 포도주 주류(포도주,꼬냑,위스키,보드카) 외국산 주류 수입업 외국산 주류 판매업 위 각호에 관련된 부대사업 주류(포도주 꼬냑 위스키 보드카) 수입 도매",,,,2015.0,,4628.0,,,,,,2065.0,,,,,,,,,,,,,,,,,,,,조사모집단통합자료,2022,,
411213,,,,,(주)상지,조재용,,,,,,,,,,우) 31401,,,,,,,,,,충남,아산시 둔포면 아산호로808번길 11-6,36.9133073,126.9930468,,,,,,,,,0415311729,,415311728.0,,자동차 및 트레일러 제조업,,,30399.0,,일반,,17.0,,,2014.0,11.0,20.0,,,,"자동차,중장비 부품,플라스틱사출 제조,부동산 임대",,,,2017.0,,9903.0,,,,,,5441.0,,,,,,,,,,,,,,,,,,,,기업체총람,2022,,
417757,,,,,(주)샛별관광,김혜영,,,,,,,,,,우) 32421,,,,,,,,,,충남,예산군 예산읍 신례원로212번길 15-1,36.7266463,126.847031,,,,,,,,,0413313115,,413342445.0,,육상 운송 및 파이프라인 운송업,,,49232.0,,일반,,10.0,,,2008.0,1.0,22.0,,,,"전세버스 운송,여행사",,,,2015.0,,733.0,,,,,,708.0,,,,,,,,,,,,,,,,,,,,조사모집단통합자료,2022,,
413597,,,,,(주)서원전원,최영진,,,,,,,,,,우) 31094,,,,,,,,,,충남,"천안시 서북구 백석공단2길 16, 2라 105호",36.8249673,127.112011,,,,,,,,,0415228455,,415228458.0,,전기장비 제조업,,,28202.0,,일반,,13.0,,,2000.0,3.0,21.0,,,www.maxland.kr,"산업차량용충전기 건식변압기 충전변압기 변압기 제조업 급속충전기,건식변압기 급속충전기 건식변압기 제조",,,,2017.0,,6841.0,,,,,,4440.0,,,,,,,,,,,,,,,,,,,,기업체총람,2022,,
415943,,,,,(주)세종건설,정희석,,,,,,,,,,우) 33303,,,,,,,,,,충남,"청양군 청양읍 충절로 918, , 353",36.4280751,126.7952976,,,,,,,,,0419427233,,419437233.0,,전문직별 공사업,,,42132.0,,일반,,10.0,,,2000.0,2.0,1.0,,,,"철근콘크리트공사,지하수이용시공",,,,2014.0,,351.0,,,,,,,,,,,,,,,,,,,,,,,,,,기업체총람,2022,,
407676,,,,,(주)세종에너지,"이영주,최상렬",,,,,,,,,,,,,,,,,,,,충남,금산군 복수면 목소리산62-3,36.1771445,127.4167669,,,,,,,,,0337328816,,337328812.0,,"전기, 가스, 증기 및 공기 조절 공급업",,,35119.0,,일반,,4.0,,,2015.0,10.0,2.0,,,,,,,,2020.0,,383.0,,,,,,3216.0,,,,,,,,,,,,,,,,,,,,기업체총람,2022,,
407677,,,,,(주)세종클러스터,김태승,,,,,,,,,,우) 32739,,,,,,,,,,충남,"금산군 금산읍 인삼약초로 45, 2-1호",36.1017552,127.4983205,,,,,,,,,0448681250,,,,소매업; 자동차 제외,,,47911.0,,일반,,5.0,,,2015.0,5.0,20.0,,,,,,,,,,,,,,,,,,,,,,,,,,,,,,,,,,,,기업체총람,2022,,
412601,,,,,(주)씨앤아이,김진술,,,,,,,,,,우) 32439,,,,,,,,,,충남,"예산군 예산읍 대학로 54, 209-2호",36.6700809,126.8596662,,,,,,,,,07041929490,,,,연구개발업,,,70209.0,,일반,,3.0,,,2020.0,4.0,20.0,,,,,,,,,,,,,,,,93.0,,,,,,,,,,,,,,,,,,,,기업체총람,2022,,
418130,,1378191480.0,,,(주)아모센스,김인응,,,,,,,,,,우) 31040,,,,,,,,,,충남,천안시 서북구 직산읍 4산단5길 90 (모시리) 천안제4지방산업단지 19-1블럭,36.8647061,127.1184477,,,,,,,,,0415905710,,415905600.0,제조업,"전자 부품, 컴퓨터, 영상, 음향 및 통신장비 제조업",,,26299.0,,외감,,287.0,,,2008.0,11.0,1.0,,,www.amosense.co.kr/,"전자부품,센서,LED,가공공작기계,측정,시험,제어,정밀기기 제조,조명기구 제조,도소매,디자인,설계",,,,2020.0,12.0,43612.0,,,-16757.0,4462.0,-10222.0,59037.0,13087.0,45950.0,,,,,,,,,,,,,,,,,,조사모집단통합자료,2022,,
411361,,,,,(주)아산밸브,권기숙,,,,,,,,,,우) 31416,,,,,,,,,,충남,아산시 음봉면 덕지리17-1,36.8337483,127.0777997,,,,,,,,,0415416320,,,,기타 기계 및 장비 제조업,,,29133.0,,일반,,,,,2012.0,4.0,20.0,,,,,,,,,,,,,,,,2870.0,,,,,,,,,,,,,,,,,,,,기업체총람,2022,,
413941,,,,,(주)에스와이,유찬세,,,,,,,,,,우) 31106,,,,,,,,,,충남,"천안시 서북구 두정상가1길 5, 204-1호",36.8308519,127.1386206,,,,,,,,,0314910116,,314037751.0,,도매 및 상품 중개업,,,46599.0,,일반,,1.0,,,2013.0,8.0,20.0,,,,"공기압기기,반도체부품 도매",,,,,,,,,,,,2040.0,,,,,,,,,,,,,,,,,,,,기업체총람,2022,,
408854,,,,,(주)에스피에스엔에이,문종구,,,,,,,,,,우) 31750,,,,,,,,,,충남,당진시 신평면 당진항만로 97,36.9590619,126.8260334,,,,,,,,,0316849452,,,,비금속 광물제품 제조업,,,23311.0,,외감,,112.0,,,2020.0,4.0,1.0,,,,,,,,2020.0,,91046.0,,,,,,126426.0,,,,,,,,,,,,,,,,,,,,기업체총람,2022,,
414012,,,,,(주)에프원,홍신석,,,,,,,,,,우) 31173,,,,,,,,,,충남,"천안시 서북구 불당대로 260, 401,402호",36.7995831,127.1244854,,,,,,,,,,,415544019.0,,도매 및 상품 중개업,,,,,일반,,2.0,,,2013.0,10.0,7.0,,,www.uplus.co.kr,"통신기기 도소매,유무선 통신",,,,2016.0,,8150.0,,,,,,,,,,,,,,,,,,,,,,,,,,기업체총람,2022,,
418321,,,,,(주)엔테크,유평호,,,,,,,,,,우) 31408,,,,,,,,,,충남,"아산시 음봉면 신휴길 192, , 223-32",36.8964134,127.0662761,,,,,,,,,04154550534,,415455073.0,,"의료, 정밀, 광학 기기 및 시계 제조업",,,27216.0,,일반,,35.0,,,2008.0,10.0,28.0,,,,"산업처리공정 제어장치,전기전자 자동제어,반도체장비,판넬 제조,부동산 임대",,,,2020.0,,3991.0,,,,,,5582.0,,,,,,,,,,,,,,,,,,,,조사모집단통합자료,2022,,
414135,,,,,(주)와할인마트,한성희,,,,,,,,,,,,,,,,,,,,충남,천안시 서북구 두정공단2길 12 (두정동),36.8346175,127.1346578,,,,,,,,,0328342800,,,,,,,,,외감,,,,,2016.0,11.0,28.0,,,,,,,,2020.0,,22156.0,,,,,,28357.0,,,,,,,,,,,,,,,,,,,,기업체총람,2022,,
411545,,,,,(주)우리마트,이병령,,,,,,,,,,우) 31530,,,,,,,,,,충남,아산시 신창면 남성리 131-2번지,36.7939845,126.9517248,,,,,,,,,0415827744,,415690098.0,,부동산업,,,68112.0,,일반,,11.0,,,2006.0,12.0,18.0,,,,부동산 임대,,,,2020.0,,120.0,,,,,,2174.0,,,,,,,,,,,,,,,,,,,,기업체총람,2022,,
416393,,,,,(주)우신,이종호,,,,,,,,,,우) 32224,,,,,,,,,,충남,"홍성군 홍성읍 조양로75번길 92, 2층",36.6024101,126.6562652,,,,,,,,,0416324884,,416324774.0,,전문직별 공사업,,,42110.0,,일반,,4.0,,,2019.0,8.0,9.0,,,,,,,,,,,,,,,,209.0,,,,,,,,,,,,,,,,,,,,기업체총람,2022,,
418528,,,,,(주)운성,정은경,,,,,,,,,,우) 32590,,,,,,,,,,충남,"공주시 송선농공단지길 46, 105-3호",36.4780086,127.1579461,,,,,,,,,0418543371,,418570354.0,,도매 및 상품 중개업,,,46599.0,,일반,,,,,2011.0,6.0,10.0,,,,,,,,2020.0,,578.0,,,,,,577.0,,,,,,,,,,,,,,,,,,,,조사모집단통합자료,2022,,
407240,,,,,(주)웅진,권영기,,,,,,,,,,우) 32517,,,,,,,,,,충남,공주시 의당면 신성말길 67-133,36.5067809,127.1619042,,,,,,,,,0418567100,,418567106.0,,스포츠 및 오락관련 서비스업,,,91121.0,,외감,,20.0,,,2007.0,5.0,16.0,,,www.goldrivercc.com,골프장운영 골프용품 골프장 운영,,,,2020.0,,3865.0,,,,,,22607.0,,,,,,,,,,,,,,,,,,,,기업체총람,2022,,
418579,,,,,(주)유상팩,류재영,,,,,,,,,,우) 31225,,,,,,,,,,충남,천안시 동남구 목천읍 도장리 266-1번지,36.748253,127.1819129,,,,,,,,,0415587751,,415587754.0,,고무 및 플라스틱제품 제조업,,,22213.0,,일반,,30.0,,,2011.0,8.0,9.0,,,,"일반플라스틱필름,피복제품 제조",,,,2015.0,,3162.0,,,,,,,,,,,,,,,,,,,,,,,,,,조사모집단통합자료,2022,,
414220,,,,,(주)유아이시스,정정근,,,,,,,,,,우) 31035,,,,,,,,,,충남,"천안시 서북구 직산읍 직산로 110, 505,606,607호",36.8857684,127.1581496,,,,,,,,,0415820383,,415820385.0,,"전자 부품, 컴퓨터, 영상, 음향 및 통신장비 제조업",,,26299.0,,일반,,,,,2006.0,3.0,15.0,,,www.uisys.co.kr,가습기제습함 측정기 기타 전자부품 온라인게임,,,,2020.0,,1461.0,,,,,,3477.0,,,,,,,,,,,,,,,,,,,,기업체총람,2022,,
410729,,,,,(주)윤파워에너지,장미옥,,,,,,,,,,우) 33621,,,,,,,,,,충남,서천군 마산면 군간길37번길 37,36.1748881,126.7803339,,,,,,,,,0424854422,,,,"전기, 가스, 증기 및 공기 조절 공급업",,,35119.0,,일반,,1.0,,,2016.0,1.0,1.0,,,,,,,,2017.0,,463.0,,,,,,3515.0,,,,,,,,,,,,,,,,,,,,기업체총람,2022,,
418613,,3078117793.0,,,(주)으뜸농산,오정호,,,,,,,,,,우) 33317,,,,,,,,,,충남,청양군 비봉면 작은한술길 48-22 비봉농공단지 5블럭,36.4726361,126.7528269,,,,,,,,,0419437887,,419434558.0,제조업,식료품 제조업,,,10302.0,,외감,,114.0,,,2001.0,8.0,21.0,,,www.no1food.c.kr,단무지 오이지 쌈무 피클 단무지 오이지 무쌈 무채,,,,2020.0,12.0,14944.0,,,139.0,2200.0,512.0,19077.0,5621.0,13455.0,,,,,,,,,,,,,,,,,,조사모집단통합자료,2022,,
414238,,,,,(주)은성관광여행사,최영희,,,,,,,,,,우) 31106,,,,,,,,,,충남,"천안시 서북구 두정상가1길 5, 202-1호",36.8308519,127.1386206,,,,,,,,,0418321190,,,,육상 운송 및 파이프라인 운송업,,,49232.0,,일반,,15.0,,,1999.0,11.0,28.0,,,,"전세버스 전세버스 전세버스 운영,여행 알선",,,,2016.0,,1201.0,,,,,,1468.0,,,,,,,,,,,,,,,,,,,,기업체총람,2022,,
414244,,,,,(주)이노본,장동우,,,,,,,,,,우) 31094,,,,,,,,,,충남,"천안시 서북구 백석공단1로 10, 비동 606호, 608호,609호,610호,611호",36.8238424,127.1110534,,,,,,,,,04153475945,,415347596.0,,의료용 물질 및 의약품 제조업,,,21300.0,,일반,,7.0,,,2010.0,11.0,25.0,,,www.inobone.com,정형외과의료기기,,,,2020.0,,467.0,,,,,,1392.0,,,,,,,,,,,,,,,,,,,,기업체총람,2022,,
418629,,,,,(주)이노셋,이강년,,,,,,,,,,우) 31177,,,,,,,,,,충남,"천안시 동남구 신촌로 24, 바5008에이호",36.7877077,127.1214494,,,,,,,,,0414140101,,414140102.0,,도매 및 상품 중개업,,,,,일반,,35.0,,,2010.0,12.0,7.0,,,,통신장비 도매,,,,2020.0,,353.0,,,,,,445.0,,,,,,,,,,,,,,,,,,,,조사모집단통합자료,2022,,
418698,,,,,(주)일산태양광,이영수,,,,,,,,,,우) 32119,,,,,,,,,,충남,태안군 소원면 법산리 196번지,36.7491021,126.1887449,,,,,,,,,0416726018,,314210059.0,,"전기, 가스, 증기 및 공기 조절 공급업",,,35119.0,,일반,,3.0,,,2007.0,8.0,24.0,,,,태양광발전 발전업,,,,2017.0,,1866.0,,,,,,7699.0,,,,,,,,,,,,,,,,,,,,조사모집단통합자료,2022,,
418712,,,,,(주)자연유통,손영화,,,,,,,,,,우) 31212,,,,,,,,,,충남,"천안시 동남구 청당3길 117-13, 104,105호",36.7774468,127.1541328,,,,,,,,,0415856071,,415855840.0,,도매 및 상품 중개업,,,46329.0,,일반,,,,,2007.0,7.0,3.0,,,,,,,,,,,,,,,,864.0,,,,,,,,,,,,,,,,,,,,조사모집단통합자료,2022,,
418793,,,,,(주)제일에프앤씨,조각형,,,,,,,,,,,,,,,,,,,,충남,"천안시 동남구 쌍용대로 71, 3층 (,제일빌딩)",36.8038963,127.1317271,,,,,,,,,0415710012,,415750415.0,,도매 및 상품 중개업,,,,,일반,,9.0,,,1994.0,9.0,20.0,,,,휴대폰 휴대폰 도소매 통신기기도매 휴대폰 도소매,,,,,,,,,,,,,,,,,,,,,,,,,,,,,,,,조사모집단통합자료,2022,,
414464,,,,,(주)진성테크,이용창,,,,,,,,,,우) 31094,,,,,,,,,,충남,천안시 서북구 백석동 555-22번지,36.830607,127.1057055,,,,,,,,,0415680001,,415646802.0,,"전자 부품, 컴퓨터, 영상, 음향 및 통신장비 제조업",,,26224.0,,일반,,17.0,,,2007.0,7.0,1.0,,,,"전자부품 실장기판,전자제품 제조",,,,,,,,,,,,,,,,,,,,,,,,,,,,,,,,기업체총람,2022,,
414494,,,,,(주)천안미드힐타운위탁관리부동산투자회사,한국토지주택공사,,,,,,,,,,우) 31129,,,,,,,,,,충남,천안시 동남구 은행길 15-1 (문화동) 원도심종합지원센터,36.8080762,127.149478,,,,,,,,,0221800650,,,,부동산업,,,68112.0,,외감,,2.0,,,2016.0,10.0,18.0,,,,,,,,2020.0,,52809.0,,,,,,110444.0,,,,,,,,,,,,,,,,,,,,기업체총람,2022,,
418977,,,,,(주)청천튜빙,김기범,,,,,,,,,,,,,,,,,,,,충남,아산시 선장면 죽산리 산323-26번지,36.780423,126.91204,,,,,,,,,0415430585,,415430587.0,,전기장비 제조업,,,28520.0,,일반,,12.0,,,1999.0,4.0,1.0,,,,메인파이프 가스기기파이프 철광관 제조업 가스레인지용 파이프 제조,,,,2020.0,,1585.0,,,,,,2825.0,,,,,,,,,,,,,,,,,,,,조사모집단통합자료,2022,,
411763,,,,,(주)케이디벨로퍼,박미화,,,,,,,,,,우) 31470,,,,,,,,,,충남,아산시 배방읍 희망로46번길 11,36.7898306,127.1041507,,,,,,,,,0415315355,,,,,,,,,외감,,,,,2018.0,7.0,5.0,,,,,,,,2020.0,,36876.0,,,,,,26901.0,,,,,,,,,,,,,,,,,,,,기업체총람,2022,,
419038,,,,,(주)케이에이치씨,남상경,,,,,,,,,,우) 31758,,,,,,,,,,충남,당진시 순성면 아찬리 산23-4번지,36.8559605,126.739078,,,,,,,,,0413579502,,413579503.0,,기타 기계 및 장비 제조업,,,29169.0,,일반,,2.0,,,2007.0,6.0,5.0,,,,"쇼트,호이스트크레인 제조",,,,2017.0,,27.0,,,,,,,,,,,,,,,,,,,,,,,,,,조사모집단통합자료,2022,,
419064,,,,,(주)켐트로,김성균,,,,,,,,,,우) 32200,,,,,,,,,,충남,홍성군 갈산면 취생리 599 갈산전문농공단지 3-1블럭,36.6312318,126.5408831,,,,,,,,,0416335633,,314181218.0,,고무 및 플라스틱제품 제조업,,,22210.0,,일반,,11.0,,,2007.0,9.0,13.0,,,www.chemtro.co.kr,플라스틱 선 봉 관,,,,,,,,,,,,,,,,,,,,,,,,,,,,,,,,조사모집단통합자료,2022,,
407306,,,,,(주)쿠스코,김동석,,,,,,,,,,우) 32567,,,,,,,,,,충남,"공주시 신금1길 79, 270-6",36.4768806,127.1487882,,,,,,,,,0418550111,,,,소매업; 자동차 제외,,,47121.0,,일반,,15.0,,,2006.0,10.0,5.0,,,,슈퍼,,,,,,,,,,,,,,,,,,,,,,,,,,,,,,,,기업체총람,2022,,
414608,,,,,(주)클레어,강병선,,,,,,,,,,우) 31065,,,,,,,,,,충남,"천안시 동남구 문암로 76, 314호",36.8442902,127.1929521,,,,,,,,,0415527997,,415527997.0,,"기타 전문, 과학 및 기술 서비스업",,,73909.0,,일반,,9.0,,,2016.0,7.0,29.0,,,,기타 엔지니어링 서비스업,,,,,,,,,,,,,,,,,,,,,,,,,,,,,,,,기업체총람,2022,,
419112,,3128643643.0,,,(주)탕정테크노파크,황한분,,,,,,,,,,우) 31480,,,,,,,,,,충남,"아산시 배방읍 배방로 22, 602-1호(삼영프라자)",36.7748462,127.0539058,,,,,,,,,0414250001,,414250003.0,부동산업,부동산업,,,68122.0,,외감,,3.0,,,2012.0,9.0,27.0,,,,,,,,,12.0,,,,-17407.0,2000.0,-8917.0,90168.0,-31852.0,122019.0,,,,,,,,,,,,,,,,,,조사모집단통합자료,2022,,
419139,,,,,(주)태영에프앤아이,김진이,,,,,,,,,,우) 32713,,,,,,,,,,충남,금산군 추부면 마전리 산2-25번지 중부대학교산학협력단 407호,36.1941133,127.4474786,,,,,,,,,0417511611,,417511612.0,,음료 제조업,,,,,일반,,5.0,,,2009.0,11.0,16.0,,,www.insamking.com,홍삼 석류엑기스 건강식품 유통업,,,,2014.0,,569.0,,,,,,468.0,,,,,,,,,,,,,,,,,,,,조사모집단통합자료,2022,,
414658,,,,,(주)통일,이재민,,,,,,,,,,우) 31206,,,,,,,,,,충남,"천안시 동남구 배울1길 190-16, 1층",36.758282,127.1366256,,,,,,,,,0415760464,,415780481.0,,종합 건설업,,,41229.0,,일반,,9.0,,,1998.0,2.0,23.0,,,,"상하수도설비공사,금속구조창호공사,포장공사,철근콘크리트공사",,,,2015.0,,4637.0,,,,,,1975.0,,,,,,,,,,,,,,,,,,,,기업체총람,2022,,
419366,,,,,(주)한빛씨에스,유인철,,,,,,,,,,우) 31232,,,,,,,,,,충남,천안시 동남구 목천읍 남화리 230번지 독립기념관내,36.7836293,127.2229697,,,,,,,,,0415600710,,415578025.0,,음식점 및 주점업,,,,,일반,,80.0,,,1994.0,2.0,15.0,,,,,,,,,,,,,,,,,,,,,,,,,,,,,,,,,,,,조사모집단통합자료,2022,,
414873,,,,,(주)현대지브이에너지,이창용,,,,,,,,,,우) 31251,,,,,,,,,,충남,천안시 동남구 수신면 5산단로 56 (속창리),36.7288279,127.277828,,,,,,,,,0415554311,,,,전기장비 제조업,,,28909.0,,외감,,9.0,,,2013.0,7.0,9.0,,,,"태양광발전시스템,열전발전기자재 도소매,무역,태양광모듈 제조,열발전기술컨설팅",,,,2020.0,,3939.0,,,,,,7852.0,,,,,,,,,,,,,,,,,,,,기업체총람,2022,,
412708,,,,,(주)협신상사,조강현,,,,,,,,,,우) 32432,,,,,,,,,,충남,예산군 예산읍 산성리 94-2번지,36.6891218,126.8418305,,,,,,,,,0413327313,,413327315.0,,도매 및 상품 중개업,,,46712.0,,일반,,9.0,,,1989.0,3.0,20.0,,,,석유류 석유류 주유소운영 화물운송 석유류 판매업 유류 도소매업 주유소운영업 부동산임대업,,,,2013.0,,12248.0,,,,,,4760.0,,,,,,,,,,,,,,,,,,,,기업체총람,2022,,
419507,,6088162643.0,,,(주)화인트로,김용길,,,,,,,,,,우) 31443,,,,,,,,,,충남,아산시 음봉면 동천리 139-3(아산온천로 528-21),36.8460003,127.0083689,,,,,,,,,0414236700,,555726763.0,제조업,자동차 및 트레일러 제조업,,,30399.0,,외감,,30.0,,,2006.0,3.0,29.0,,,www.finetro.co.kr,브레이크패드 외 브레이크패드 브레이크패드 라이닝 보광판 자동차부품(패드) 제조 및 판매업,,,,2020.0,12.0,14627.0,,,652.0,1500.0,771.0,21802.0,10107.0,11695.0,,,,,,,,,,,,,,,,,,조사모집단통합자료,2022,,
414929,,,,,(주)휴먼시스템,박기성,,,,,,,,,,우) 31158,,,,,,,,,,충남,"천안시 서북구 백석3로 134, 201-2호",36.822059,127.1250116,,,,,,,,,0416211012,,416211013.0,,사업시설 관리 및 조경 서비스업,,,74100.0,,일반,,25.0,,,2009.0,4.0,1.0,,,,"건물시설관리용역,경비용역,위생관리용역,고용알선,건설시설관리",,,,,,,,,,,,,,,,,,,,,,,,,,,,,,,,기업체총람,2022,,
419545,,,,,(주)흑삼코리아,이명희,,,,,,,,,,우) 32752,,,,,,,,,,충남,금산군 남이면 범재길 5,36.0484306,127.4965177,,,,,,,,,0417512898,,417516588.0,,식료품 제조업,,,10795.0,,일반,,6.0,,,2005.0,4.0,1.0,,,www.bgk.or.kr,흑삼농축액 흑장삼진액 시설작물 재배업 인삼제품판매,,,,,,,,,,,,,,,,,,,,,,,,,,,,,,,,조사모집단통합자료,2022,,
414953,,,,,건우이앤지(주),김만중,,,,,,,,,,우) 31076,,,,,,,,,,충남,"천안시 서북구 2공단3로 96-6, 외 5필지",36.8591282,127.1248524,,,,,,,,,0415227630,,415227631.0,,전문직별 공사업,,,42311.0,,일반,,16.0,,,2012.0,2.0,21.0,,,,"전기기공사,정보통신공사,주거용건물건설업,소방시설공사,자동제어수배전반,전기자동제어반 제조,전기,전자기기,도소매,부동산 매매",,,,2020.0,,8136.0,,,,,,3464.0,,,,,,,,,,,,,,,,,,,,기업체총람,2022,,
412728,,3118148427.0,,,내포그린에너지(주),김만년,,,,,,,,,,우) 32416,,,,,,,,,,충남,예산군 삽교읍 목리 114-9,36.6658754,126.6735355,,,,,,,,,0416312901,,416317327.0,"전기, 가스, 증기 및 공기 조절 공급업","전기, 가스, 증기 및 공기 조절 공급업",,,35119.0,,외감,,17.0,,,2014.0,5.0,1.0,,,www.npge.co.kr,"증기,냉온수,공기조절 공급",,,,2020.0,12.0,7056.0,,,-25379.0,100000.0,-11771.0,156937.0,-5139.0,162075.0,,,,,,,,,,,,,,,,,,기업체총람,2022,,
419782,,3118131606.0,,,농업회사법인대한에프에스(주),이상민,,,,,,,,,,우) 32408,,,,,,,,,,충남,예산군 덕산면 가루실길 229번지,36.6562275,126.643581,,,,,,,,,0413376170,,413373770.0,농업,농업,,,1212.0,,외감,,14.0,,,2009.0,8.0,1.0,,,www.daehanfs.co.kr,"젖소사육,한육우사육",,,,2020.0,12.0,16192.0,,,1056.0,8680.0,1307.0,15502.0,9814.0,5689.0,,,,,,,,,,,,,,,,,,조사모집단통합자료,2022,,
407863,,,,,농업회사법인정원인삼가공(주),임채원,,,,,,,,,,,,,,,,,,,,충남,금산군 금산읍 음지장동1길 36,36.0992701,127.462262,,,,,,,,,0417514210,,417514211.0,,도매 및 상품 중개업,,,,,일반,,,,,2016.0,5.0,2.0,,,,,,,,2018.0,,2407.0,,,,,,1120.0,,,,,,,,,,,,,,,,,,,,기업체총람,2022,,
419923,,,,,농업회사법인흥진담은(주),김우기,,,,,,,,,,우) 31251,,,,,,,,,,충남,"천안시 동남구 수신면 신풍2길 16-18, 16-20",36.7393876,127.2755852,,,,,,,,,04156688312,,415668834.0,,음료 제조업,,,11111.0,,일반,,8.0,,,2012.0,8.0,8.0,,,,"탁주,약주 제조",,,,2020.0,,1362.0,,,,,,2881.0,,,,,,,,,,,,,,,,,,,,조사모집단통합자료,2022,,
409139,,3118117680.0,,,당진탱크터미널(주),백풍렬,,,,,,,,,,우) 31720,,,,,,,,,,충남,당진시 송악읍 고대공단2길 357-20,36.9762337,126.7777242,,,,,,,,,0413580570,,413580573.0,운수 및 창고업,창고 및 운송관련 서비스업,,,52104.0,,외감,,1.0,,,2002.0,5.0,31.0,,,,석유 나프타 LPG가스보관 화물부두,,,,,12.0,,,,-2325.0,116404.0,-2333.0,92261.0,91635.0,625.0,,,,,,,,,,,,,,,,,,기업체총람,2022,,
419997,,3128639912.0,,,대승관리(주),양대석,,,,,,,,,,우) 31471,,,,,,,,,,충남,"아산시 배방읍 광장로 210 212.213호(장재리, 요진와이시티)",36.7958628,127.1083242,,,,,,,,,0415561943,,415561947.0,"사업시설 관리, 사업 지원 및 임대 서비스업",사업 지원 서비스업,,,75310.0,,외감,,468.0,,,2012.0,6.0,1.0,,,,"경비,청소 용역",,,,2020.0,12.0,11973.0,,,245.0,500.0,164.0,2901.0,1160.0,1741.0,,,,,,,,,,,,,,,,,,조사모집단통합자료,2022,,
415135,,,,,대운테크(주),조순주,,,,,,,,,,,,,,,,,,,,충남,천안시 동남구 풍세면 용정리 풍세일반산업단지내 에이1-3,36.741396,127.1107672,,,,,,,,,0415659465,,415669464.0,,고무 및 플라스틱제품 제조업,,,22213.0,,일반,,12.0,,,2013.0,4.0,23.0,,,,폴리에스터필름 제조,,,,2017.0,,2288.0,,,,,,6997.0,,,,,,,,,,,,,,,,,,,,기업체총람,2022,,
412098,,,,,드림물류(주),오효석,,,,,,,,,,,,,,,,,,,,충남,아산시 염치읍 방현리 300-3번지,36.8206402,127.0079151,,,,,,,,,0415447740,,415497740.0,,육상 운송 및 파이프라인 운송업,,,49301.0,,일반,,8.0,,,2007.0,7.0,15.0,,,,화물(사료) 운송,,,,,,,,,,,,,,,,,,,,,,,,,,,,,,,,기업체총람,2022,,
421710,,,,,디쓰리솔루션,,,,,,,,,,,,,,,,,,,,,충남,"천안시 동남구 문암로 76, 백석대학교BI센터 303호 (안서동)",36.839909,127.17935,,,,,,,,,0415564210,,415564211.0,,,,7320.0,,,개인,,1.0,,,2011.0,10.0,4.0,,,,,,,,,,,,,,,,,,,,,,,,,,,,,,,,,,,,저작권조사대상,2021,,
410489,,3168108546.0,,,롯데엠시시(주),"윤승호,오쿠노 히로아키",,,,,,,,,,우) 31901,,,,,,,,,,충남,서산시 대산읍 독곶1로 82,37.0031897,126.361808,,,,,,,,,028400945,,28400919.0,제조업,화학 물질 및 화학제품 제조업; 의약품 제외,,,20202.0,,외감,,190.0,,,2006.0,8.0,2.0,,,www.lottemcc.com,메틸메타크릴레이트 메타크릴산 폴리메틸메타크릴레이트 MMA모노머 MMA MAA PMMA 수지 TBA 제조,,,,2020.0,12.0,425948.0,,,35443.0,190000.0,49097.0,464224.0,401469.0,62755.0,,,,,,,,,,,,,,,,,,기업체총람,2022,,
420240,,,,,명헌건재공업(주),이상열,,,,,,,,,,우) 32614,,,,,,,,,,충남,공주시 계룡면 구왕리 산 66-1,36.385001,127.1781272,,,,,,,,,0422571968,,422572017.0,,도매 및 상품 중개업,,,46310.0,,일반,,18.0,,,1993.0,8.0,11.0,,,,도로공사 교량공사 건물건축 관공서 등의 입찰 받아 건축 및 토목 공사,,,,,,,,,,,,,,,,,,,,,,,,,,,,,,,,조사모집단통합자료,2022,,
409202,,,,,반도정보기술(주),김효희,,,,,,,,,,우) 31774,,,,,,,,,,충남,"당진시 무수동2길 20, , 5,6층",36.8893929,126.6381891,,,,,,,,,0413570770,,413570440.0,,전문직별 공사업,,,42322.0,,일반,,4.0,,,1998.0,2.0,20.0,,,,전신주공사 내선공사 정보통신공사 소방시설공사 정보통신공사업 및 소프트웨어개발 전기공사업 및 유지보수업 교육 및 문화사업 각호에관련된 대리점 및 부대되는 사업일체,,,,2017.0,,372.0,,,,,,,,,,,,,,,,,,,,,,,,,,기업체총람,2022,,
410495,,,,,베올리아워터코리아대산(주),가보렐마르셀루시앙프랑소와,,,,,,,,,,우) 31901,,,,,,,,,,충남,서산시 대산읍 독곶1로 82 (독곶리),37.0031897,126.361808,,,,,,,,,0263232900,,416677923.0,,수도업,,,36020.0,,외감,,29.0,,,2000.0,3.0,21.0,,,www.veolia.co.kr,"공업용수 사업시설운영,관리 대리업 산업용수 공급",,,,2020.0,,42276.0,,,,,,44386.0,,,,,,,,,,,,,,,,,,,,기업체총람,2022,,
408460,,,,,봄초여농업회사법인(주),배정숙,,,,,,,,,,우) 32917,,,,,,,,,,충남,"논산시 부적면 부적로157번길 13-1, 1-36",36.2009502,127.1322419,,,,,,,,,0417325468,,,,농업,,,1121.0,,일반,,,,,2014.0,2.0,13.0,,,,,,,,2020.0,,168.0,,,,,,207.0,,,,,,,,,,,,,,,,,,,,기업체총람,2022,,
415327,,,,,삼진종합건설(주),김승태,,,,,,,,,,우) 31090,,,,,,,,,,충남,"천안시 서북구 오성9길 34, 103-1호",36.8330996,127.1310194,,,,,,,,,0632135757,,632135758.0,,종합 건설업,,,41100.0,,일반,,9.0,,,2014.0,2.0,5.0,,,,"건축공사,신재생에너지",,,,2020.0,,3038.0,,,,,,1384.0,,,,,,,,,,,,,,,,,,,,기업체총람,2022,,
420419,,,,,삼화환경(주),김영식,,,,,,,,,,,,,,,,,,,,충남,천안시 서북구 두정공단2길 27,36.8334411,127.1433118,,,,,,,,,04156845189,,415687848.0,,"폐기물 수집, 운반, 처리 및 원료 재생업",,,38100.0,,일반,,10.0,,,2001.0,3.0,12.0,,,,지정폐기물수집운반 건설폐기물수집운반 지정외폐기물수집운반 폐기물(지정 일반) 건설폐기물 수입운반,,,,2020.0,,1582.0,,,,,,1352.0,,,,,,,,,,,,,,,,,,,,조사모집단통합자료,2022,,
410520,,3168113210.0,,,서산청천(주),정영화,,,,,,,,,,우) 32008,,,,,,,,,,충남,서산시 양대11로 55-2 (양대동),36.7227409,126.4626995,,,,,,,,,027397480,,416686971.0,"사업시설 관리, 사업 지원 및 임대 서비스업",사업시설 관리 및 조경 서비스업,,,74100.0,,외감,,6.0,,,2009.0,6.0,11.0,,,,하수관거시설관리운영 하수 및 폐수 처리업,,,,2020.0,12.0,3498.0,,,-164.0,8117.0,1982.0,55917.0,5940.0,49977.0,,,,,,,,,,,,,,,,,,기업체총람,2022,,
420478,,1258172326.0,,,서평택탱크터미널(주),배석홍,,,,,,,,,,우) 31750,,,,,,,,,,충남,당진시 신평면 당진항만로 81,36.9584445,126.8226554,,,,,,,,,0316835101,,316835105.0,운수 및 창고업,창고 및 운송관련 서비스업,,,52104.0,,외감,,25.0,,,2007.0,12.0,27.0,,,www.wptt.cp.kr,액체연료 도매 위험물보관,,,,2020.0,12.0,5576.0,,,223.0,3500.0,1030.0,29571.0,27370.0,2202.0,,,,,,,,,,,,,,,,,,조사모집단통합자료,2022,,
420676,,,,,쌍용자동차천안정비사업소(주),한석균,,,,,,,,,,,,,,,,,,,,충남,천안시 서북구 두정공단2길 37,36.8334411,127.1433118,,,,,,,,,0416225582,,415235586.0,,개인 및 소비용품 수리업,,,95211.0,,일반,,28.0,,,2002.0,12.0,5.0,,,,자동차종합정비소운영 자동차 수리,,,,2017.0,,3601.0,,,,,,5388.0,,,,,,,,,,,,,,,,,,,,조사모집단통합자료,2022,,
410565,,,,,씨지앤대산전력(주),천타이,,,,,,,,,,우) 31901,,,,,,,,,,충남,서산시 대산읍 독곶1로 82 씨지앤대산전력 주식회사,36.9969146,126.3652611,,,,,,,,,023997800,,23997815.0,,"전기, 가스, 증기 및 공기 조절 공급업",,,35113.0,,외감,,94.0,,,2009.0,4.0,8.0,,,,화력발전소운영 발전업,,,,2020.0,,22486.0,,,,,,506949.0,,,,,,,,,,,,,,,,,,,,기업체총람,2022,,
412227,,,,,아산율림영농조합법인(영),윤태원,,,,,,,,,,우) 31584,,,,,,,,,,충남,아산시 송악면 송학리 142번지,36.6824385,126.9918741,,,,,,,,,0415434809,,415494809.0,,도매 및 상품 중개업,,,46311.0,,일반,,15.0,,,1995.0,5.0,23.0,,,www.asanyulim.com,밤 밤 도매 농산물(밤) 도매,,,,2017.0,,12722.0,,,,,,6095.0,,,,,,,,,,,,,,,,,,,,기업체총람,2022,,
409270,,1348617166.0,,,아성크린후로텍(주),김형수,,,,,,,,,,우) 31721,,,,,,,,,,충남,당진시 송악읍 부곡공단4길28-10,36.9527274,126.7817614,,,,,,,,,0413578192,,413578676.0,제조업,고무 및 플라스틱제품 제조업,,,22211.0,,외감,,144.0,,,2004.0,9.0,1.0,,,www.asungvalve.com,"PVC밸브 PVC파이프 PVDF밸브 PVDF파이프 철물,냉난방장치 도매업 플라스틱 밸브,파이프 부속 제조 및 판매업",,,,2020.0,12.0,13568.0,,,-2032.0,500.0,-2534.0,52569.0,46149.0,6420.0,,,,,,,,,,,,,,,,,,기업체총람,2022,,
420854,,3118127117.0,,,영진글로벌(주),이강우,,,,,,,,,,우) 31750,,,,,,,,,,충남,당진시 신평면 당진항만로 65 (매산리),36.9615052,126.8259474,,,,,,,,,0316811373,,316811378.0,제조업,비금속 광물제품 제조업,,,23311.0,,외감,,28.0,,,2007.0,10.0,18.0,,,www.yjglobal.co.kr,시멘트 슬래그 슬래그분말 플라이애쉬 건물설비 설치공사,,,,2020.0,12.0,43041.0,,,-3166.0,6927.0,-1552.0,75907.0,17555.0,58353.0,,,,,,,,영진글로벌(주),,,,,,,,,,조사모집단통합자료,2022,,
420858,,,,,영진티앤엠(주),"이강석,이강신",,,,,,,,,,우) 31750,,,,,,,,,,충남,당진시 신평면 당진항만로 73,36.9589302,126.8240883,,,,,,,,,0316827557,,316828668.0,,창고 및 운송관련 서비스업,,,52109.0,,일반,,20.0,,,2012.0,7.0,4.0,,,,"액체화물 하역보관,비금속재생재료 가공",,,,2020.0,,5211.0,,,,,,13565.0,,,,,,,,,,,,,,,,,,,,조사모집단통합자료,2022,,
407489,,,,,오메가테크놀로지(주),정진평,,,,,,,,,,우) 32610,,,,,,,,,,충남,공주시 탄천면 탄천산업단지길 55-27,36.3024938,127.0635988,,,,,,,,,0316815921,,316815921.0,,화학 물질 및 화학제품 제조업; 의약품 제외,,,20499.0,,일반,,4.0,,,2010.0,12.0,3.0,,,,"플라스틱재생칩 건축용 지수제 제조 및 도매,소매 판매업",,,,2013.0,,2308.0,,,,,,,,,,,,,,,,,,,,,,,,,,기업체총람,2022,,
420876,,,,,오모리(주),문인술,,,,,,,,,,우) 31032,,,,,,,,,,충남,천안시 서북구 직산읍 군동리 83번지 1호,36.8986537,127.1669999,,,,,,,,,0425825531,,24130036.0,,식료품 제조업,,,10302.0,,일반,,15.0,,,2007.0,2.0,10.0,,,www.omori.co.kr,"김치절임식품,과실통조림,유사조제식품 제조,전자상거래,부동산 임대",,,,2015.0,,3252.0,,,,,,4971.0,,,,,,,,,,,,,,,,,,,,조사모집단통합자료,2022,,
420947,,,,,우진택시(자),안양수,,,,,,,,,,,,,,,,,,,,충남,보령시 송정1길 7,36.3362682,126.6137343,,,,,,,,,0419353575,,419350397.0,,육상 운송 및 파이프라인 운송업,,,49230.0,,일반,,20.0,,,1984.0,6.0,25.0,,,,택시운송 운수,,,,,,,,,,,,,,,,,,,,,,,,,,,,,,,,조사모집단통합자료,2022,,
407505,,,,,을지정보통신(주),오태균,,,,,,,,,,우) 32590,,,,,,,,,,충남,"공주시 송선농공단지길 46, 105-2호",36.4780086,127.1579461,,,,,,,,,0418567941,,418543900.0,,전문직별 공사업,,,42322.0,,일반,,6.0,,,2009.0,4.0,23.0,,,,통신장비 방송 및 무선 통신장비 제조업,,,,2016.0,,596.0,,,,,,,,,,,,,,,,,,,,,,,,,,기업체총람,2022,,
421021,,,,,이매종합건설(주),윤성철,,,,,,,,,,우) 32609,,,,,,,,,,충남,공주시 탄천면 삼각리 485번지,36.3304948,127.0295309,,,,,,,,,0418526880,,418524466.0,,전문직별 공사업,,,42134.0,,일반,,4.0,,,2005.0,5.0,20.0,,,,토목시설물 건설업,,,,2016.0,,478.0,,,,,,861.0,,,,,,,,,,,,,,,,,,,,조사모집단통합자료,2022,,
421153,,3118108518.0,,,지에스이피에스(주),김응식,,,,,,,,,,우) 31721,,,,,,,,,,충남,당진시 송악읍 부곡공단로 241,36.9572321,126.781758,,,,,,,,,0220058528,,413512121.0,"전기, 가스, 증기 및 공기 조절 공급업","전기, 가스, 증기 및 공기 조절 공급업",,,35113.0,,외감,,248.0,,,1996.0,10.0,9.0,,,www.gseps.com,전력공급 전력자원의 개발 판매 발전 송전,,,,2020.0,12.0,756958.0,,,68503.0,224096.0,93082.0,2393452.0,867427.0,1526025.0,,,,,,,,,,,,,,,,,,조사모집단통합자료,2022,,
410611,,,,,진명건설(주),이진모,,,,,,,,,,우) 31909,,,,,,,,,,충남,"서산시 대산읍 구진천로 12, 118 대산프라자 4층 6호",36.9382314,126.4344022,,,,,,,,,0416638161,,416630187.0,,전문직별 공사업,,,42120.0,,일반,,7.0,,,1995.0,1.0,1.0,,,,"토공사 철근콘크리트공사 상하수도설비공사 토공사업 토목공사,포장공사,상하수도공사,철근콘크리트공사",,,,,,,,,,,,,,,,,,,,,,,,,,,,,,,,기업체총람,2022,,
409783,,,,,짚트랙코리아(주),황득성,,,,,,,,,,우) 33489,,,,,,,,,,충남,보령시 신흑동2208-5 짚트랙타워,36.3206667,126.5064831,,,,,,,,,0419343003,,419313004.0,,스포츠 및 오락관련 서비스업,,,91139.0,,일반,,3.0,,,2009.0,12.0,16.0,,,www.ziptrek.co.kr,"레저산업시설(짚트랙레포츠) 설치,운영",,,,,,,,,,,,3665.0,,,,,,,,,,,,,,,,,,,,기업체총람,2022,,
415750,,,,,칸토덴카화인프로덕츠한국(주),야코켄이치,,,,,,,,,,,,,,,,,,,,충남,천안시 동남구 수신면 5산단로1로 176,36.7411172,127.2730261,,,,,,,,,0415694562,,,,,,,,,외감,,,,,2017.0,11.0,20.0,,,,,,,,2020.0,,13130.0,,,,,,59475.0,,,,,,,,,,,,,,,,,,,,기업체총람,2022,,
421387,,,,,툴아트코리아(주),유영모,,,,,,,,,,우) 31034,,,,,,,,,,충남,"천안시 서북구 직산읍 남산2길 91, 95, 99-3",36.8861637,127.1717996,,,,,,,,,0415663111,,415663123.0,,기타 기계 및 장비 제조업,,,29294.0,,일반,,6.0,,,2007.0,1.0,1.0,,,,그외기타특수목적기계,,,,2015.0,,1185.0,,,,,,,,,,,,,,,,,,,,,,,,,,조사모집단통합자료,2022,,
412443,,3128183499.0,,,푸른아산지키미(주),이용희,,,,,,,,,,우) 31529,,,,,,,,,,충남,아산시 환경공원로 142(실옥동),36.800358,126.9800097,,,,,,,,,0415342406,,412347406.0,"수도, 하수 및 폐기물 처리, 원료 재생업","하수, 폐수 및 분뇨 처리업",,,37011.0,,외감,,7.0,,,2006.0,6.0,2.0,,,,하수관거관리 하수관거정비 투자 기관 아산시 하수관거정비 BTL 민간투자사업,,,,2020.0,12.0,2216.0,,,-122.0,9377.0,1478.0,55189.0,7385.0,47804.0,,,,,,,,,,,,,,,,,,기업체총람,2022,,
421441,,,,,한국메탈(주),김영호,,,,,,,,,,,,,,,,,,,,충남,당진시 합덕읍 소소리합덕일반산업단지 에이12-2,36.8207568,126.7450719,,,,,,,,,0413631544,,413631533.0,,금속 가공제품 제조업; 기계 및 가구 제외,,,25944.0,,일반,,30.0,,,2003.0,4.0,28.0,,,www.hk1544.com,철망 스테인리스와이어 철선조립제품 제조업,,,,2018.0,,10176.0,,,,,,11440.0,,,,,,,,,,,,,,,,,,,,조사모집단통합자료,2022,,
421474,,,,,한길러버텍스(주),이재희,,,,,,,,,,우) 32700,,,,,,,,,,충남,금산군 진산면 웡골길 25,36.1752563,127.3440888,,,,,,,,,025422115,,313788170.0,,고무 및 플라스틱제품 제조업,,,22190.0,,일반,,13.0,,,2003.0,11.0,1.0,,,www.hk-flex.com,고무스폰지,,,,2014.0,,3463.0,,,,,,,,,,,,,,,,,,,,,,,,,,조사모집단통합자료,2022,,
421560,,3168119188.0,,,현대쉘베이스오일(주),송규석,,,,,,,,,,우) 31902,,,,,,,,,,충남,서산시 대산읍 평신2로 182,37.0066069,126.4025218,,,,,,,,,0220043044,,220043553.0,제조업,"코크스, 연탄 및 석유정제품 제조업",,,19210.0,,외감,,18.0,,,2012.0,4.0,12.0,,,www.hsbaseoil.com,윤활기유,,,,2020.0,12.0,571199.0,,,70694.0,13000.0,94890.0,461699.0,306369.0,155329.0,,,,,,,,,,,,,,,,,,조사모집단통합자료,2022,,
421568,,3108120275.0,,,현대오일뱅크(주),강달호,,,,,,,,,,우) 31902,,,,,,,,,,충남,서산시 대산읍 평신2로 182,37.0066069,126.4025218,,,,,,,,,0416605114,,416605111.0,제조업,"코크스, 연탄 및 석유정제품 제조업",,,19210.0,,외감,,1963.0,,,1964.0,11.0,19.0,,,www.oilbank.co.kr,휘발유 경유 등유 중유 석유류정제 동제품 및 부제품의 판매처분 원유 및 정제유의 무역업 산업폐기물 처리업 일반가스사업,,,,2020.0,12.0,12491005.0,,,-457484.0,1225412.0,-625764.0,11330728.0,4243599.0,7087128.0,,,,,,,,,,,,,,,,,,조사모집단통합자료,2022,,
410655,,,,,현대코스모(주),"이영우,마츠오카타이스케",,,,,,,,,,우) 31902,,,,,,,,,,충남,서산시 대산읍 평신2로 182,37.0066069,126.4025218,,,,,,,,,0221302511,,416605111.0,,화학 물질 및 화학제품 제조업; 의약품 제외,,,20111.0,,외감,,25.0,,,2009.0,11.0,26.0,,,www.hyundaicosmo.com,"벤젠 파라자일렌 석유화학제품의 생산,판매,유통 및 마케팅",,,,2020.0,,1501599.0,,,,,,1106916.0,,,,,,,,,,,,,,,,,,,,기업체총람,2022,,
421581,,,,,현석종합건설(주),박인석,,,,,,,,,,우) 32700,,,,,,,,,,충남,금산군 진산면 웡골길 33,36.1756534,127.3431444,,,,,,,,,0426226239,,426259155.0,,종합 건설업,,,41100.0,,일반,,5.0,,,2005.0,2.0,25.0,,,,토목시설물 건설업,,,,2013.0,,655.0,,,,,,701.0,,,,,,,,,,,,,,,,,,,,조사모집단통합자료,2022,,
409394,,,,,형제기계공업(주),김호성,,,,,,,,,,우) 31806,,,,,,,,,,충남,"당진시 면천면 산업단지길 17-50, 202-1",36.8048461,126.7031683,,,,,,,,,0413583500,,314373031.0,,자동차 및 트레일러 제조업,,,30399.0,,일반,,23.0,,,1978.0,11.0,20.0,,,,볼트 너트 캠샤프트 앤드패드 자동차 엔진용 부품 제조업 자동차부품 제조,,,,2017.0,,6111.0,,,,,,6919.0,,,,,,,,,,,,,,,,,,,,기업체총람,2022,,
421634,,,,,휴먼테크윈(주),함창희,,,,,,,,,,우) 31561,,,,,,,,,,충남,"아산시 외암로 1245, 402-2호",36.7477069,127.0151429,,,,,,,,,0415336225,,3033130622.0,,사업시설 관리 및 조경 서비스업,,,74100.0,,일반,,34.0,,,2013.0,3.0,11.0,,,,"건물시설관리용역,주차관리,소독,청소용품 도소매",,,,2015.0,,59.0,,,,,,82.0,,,,,,,,,,,,,,,,,,,,조사모집단통합자료,2022,,
416624,,,,,(유)대한청정환경,"강태근,강용성",,,,,,,,,,우) 31731,,,,,,,,,,충남,"당진시 송악읍 조비실길 131-4, 외 3필지",36.9042474,126.721098,,,,,,,,,0413577431,,413587431.0,,"폐기물 수집, 운반, 처리 및 원료 재생업",,,38110.0,,일반,,24.0,,,2009.0,10.0,20.0,,,,성형플라스틱 제조업 폐기물수집 및 처리,,,,2020.0,,11675.0,,,,,,6356.0,,,,,,,,,,,,,,,,,,,,조사모집단통합자료,2022,,
407218,,,,,(주)에코앤하우징,홍인기,,,,,,,,,,우) 32551,,,,,,,,,,충남,"공주시 봉황로 14, 203호",36.4473317,127.1203648,,,,,,,,,0426210211,,,,전문직별 공사업,,,42132.0,,일반,,19.0,,,2012.0,7.0,5.0,,,,철근콘크리트공사,,,,,,,,,,,,,,,,,,,,,,,,,,,,,,,,기업체총람,2022,,
415293,,,,,블루앤시티(주),"이경엽,이형진",,,,,,,,,,우) 31206,,,,,,,,,,충남,"천안시 동남구 배울1길 190-16, 2층",36.758282,127.1366256,,,,,,,,,0415760461,,415780481.0,,부동산업,,,68122.0,,일반,,4.0,,,2016.0,3.0,2.0,,,,부동산개발 및 공급업,,,,2019.0,,7618.0,,,,,,3926.0,,,,,,,,,,,,,,,,,,,,기업체총람,2022,,
410645,,,,,해진산업(주),정헌진,,,,,,,,,,우) 32001,,,,,,,,,,충남,서산시 서해로 3518 (동문동),36.7766817,126.4662079,,,,,,,,,0416656666,,416651716.0,,전문직별 공사업,,,42132.0,,일반,,6.0,,,1999.0,11.0,25.0,,,,"철근콘크리트공사,토공사",,,,2014.0,,1367.0,,,,,,1148.0,,,,,,,,,,,,,,,,,,,,기업체총람,2022,,
432222,,,,,(농)장흥물산,손수익,,,,,,,,,,우) 59328,,,,,,,,,,전남,장흥군 장흥읍 건산리 488번지,34.6819141,126.9090498,,,,,,,,,06186391378,,618639896.0,,식료품 제조업,,,10611.0,,일반,,8.0,,,1983.0,5.0,6.0,,,,도정미 정부양곡보관 쌀 쌀포장 및 제조유통 곡물도정 양곡 정부미 도소매,,,,,,,,,,,,,,,,,,,,,,,,,,,,,,,,조사모집단통합자료,2022,,
426440,,,,,(유)경모기업,이은만,,,,,,,,,,,,,,,,,,,,전남,순천시 해룡면 신성리 율촌제1지방산업단지 1블럭,34.8996486,127.578106,,,,,,,,,0617268880,,,,기타 운송장비 제조업,,,31114.0,,일반,,20.0,,,2012.0,6.0,1.0,,,,"선박블럭 제조,합성수지선 건조,수리",,,,,,,,,,,,,,,,,,,,,,,,,,,,,,,,기업체총람,2022,,
424979,,,,,(유)금강레포츠,손원오,,,,,,,,,,,,,,,,,,,,전남,목포시 호남동 1-28번지,34.7927511,126.3865257,,,,,,,,,0612433131,,,,도매 및 상품 중개업,,,46413.0,,일반,,2.0,,,2007.0,7.0,1.0,,,,스포츠의류 도소매,,,,2016.0,,826.0,,,,,,1781.0,,,,,,,,,,,,,,,,,,,,기업체총람,2022,,
432295,,,,,(유)금강환경,박종남,,,,,,,,,,우) 58446,,,,,,,,,,전남,"영암군 삼호읍 백야길 29-206, 1035-11",34.7616064,126.5021501,,,,,,,,,0614642000,,614640220.0,,"폐기물 수집, 운반, 처리 및 원료 재생업",,,38230.0,,일반,,8.0,,,1997.0,11.0,1.0,,,www.gg2000.co.kr,"건축폐기물 중간처리,운반,비계구조물해체공사,상하수도설비공사,톱밥 제조",,,,2017.0,,2095.0,,,,,,3576.0,,,,,,,,,,,,,,,,,,,,조사모집단통합자료,2022,,
432336,,,,,(유)남부산업,김용호,,,,,,,,,,,,,,,,,,,,전남,영암군 삼호읍 용당리1700,34.7554991,126.3889479,,,,,,,,,0614604018,,614640842.0,,금속 가공제품 제조업; 기계 및 가구 제외,,,,,일반,,80.0,,,2007.0,9.0,1.0,,,,선박블록 선박구성부품,,,,2020.0,,3993.0,,,,,,2980.0,,,,,,,,,,,,,,,,,,,,조사모집단통합자료,2022,,
422179,,,,,(유)늘푸른산림공사,신혁우,,,,,,,,,,우) 57534,,,,,,,,,,전남,"곡성군 곡성읍 낙동원로 21, 1층",35.283237,127.3005056,,,,,,,,,0615377676,,615376464.0,,임업,,,2040.0,,일반,,8.0,,,2013.0,1.0,8.0,,,,"숲가꾸기,병해충방제,도시림,나무병원,산림경영계획,종묘 도소매",,,,2016.0,,370.0,,,,,,330.0,,,,,,,,,,,,,,,,,,,,기업체총람,2022,,
426459,,,,,(유)대동종합유통,유정규,,,,,,,,,,우) 58005,,,,,,,,,,전남,순천시 해룡면 상성길 205-11,34.9366072,127.5374303,,,,,,,,,0617213360,,617213360.0,,도매 및 상품 중개업,,,46444.0,,일반,,4.0,,,2004.0,11.0,17.0,,,,세제 잡화 도매업,,,,2020.0,,1902.0,,,,,,625.0,,,,,,,,,,,,,,,,,,,,기업체총람,2022,,
432399,,,,,(유)대웅상사,김대룡,,,,,,,,,,우) 57242,,,,,,,,,,전남,장성군 동화면 남산리 464-3번지,35.2657786,126.7284531,,,,,,,,,0613923131,,613925995.0,,자동차 및 부품 판매업,,,45219.0,,일반,,8.0,,,2005.0,3.0,21.0,,,,자동차부품(몰딩제품) 몰딩 자동차 부품 및 내장품 판매업,,,,2018.0,,6988.0,,,,,,6098.0,,,,,,,,,,,,,,,,,,,,조사모집단통합자료,2022,,
432400,,,,,(유)대유산업,장순익,,,,,,,,,,,,,,,,,,,,전남,영암군 삼호읍 용당리 1700,34.7554991,126.3889479,,,,,,,,,0614604062,,614610159.0,,금속 가공제품 제조업; 기계 및 가구 제외,,,25923.0,,일반,,126.0,,,2006.0,1.0,31.0,,,,선박도장 금속구조재 강선 건조업 선박도장,,,,2017.0,,5812.0,,,,,,4271.0,,,,,,,,,,,,,,,,,,,,조사모집단통합자료,2022,,
429405,,,,,(유)대화운수,강정원,,,,,,,,,,우) 58400,,,,,,,,,,전남,영암군 신북면 갈곡리 27번지,34.9281722,126.704879,,,,,,,,,,,614729126.0,,육상 운송 및 파이프라인 운송업,,,49301.0,,일반,,2.0,,,1990.0,2.0,1.0,,,,"화물 운송,용역",,,,2020.0,,140.0,,,,,,256.0,,,,,,,,,,,,,,,,,,,,기업체총람,2022,,
429407,,,,,(유)덕인기업,함건기,,,,,,,,,,,,,,,,,,,,전남,영암군 삼호읍 용당리1700,34.7554991,126.3889479,,,,,,,,,0614643411,,614643410.0,,기타 운송장비 제조업,,,31114.0,,일반,,170.0,,,2011.0,9.0,16.0,,,,선박임가공,,,,2020.0,,8140.0,,,,,,4090.0,,,,,,,,,,,,,,,,,,,,기업체총람,2022,,
432454,,,,,(유)동일이엔지,최미경,,,,,,,,,,우) 58603,,,,,,,,,,전남,"목포시 대박길 118-5, ,317-2",34.8396848,126.4163631,,,,,,,,,0612858323,,612878323.0,,"폐기물 수집, 운반, 처리 및 원료 재생업",,,38210.0,,일반,,1.0,,,2014.0,12.0,23.0,,,,"폐기물 처리,수집운반",,,,,,,,,,,,1054.0,,,,,,,,,,,,,,,,,,,,조사모집단통합자료,2022,,
425069,,,,,(유)미루,박정애,,,,,,,,,,우) 58750,,,,,,,,,,전남,"목포시 상동 1154-11번지, 12",34.7951968,126.4311469,,,,,,,,,0612851929,,612815609.0,,기타 개인 서비스업,,,96121.0,,일반,,1.0,,,2013.0,12.0,15.0,,,,숙박시설 운영,,,,2017.0,,24.0,,,,,,,,,,,,,,,,,,,,,,,,,,기업체총람,2022,,
432514,,,,,(유)미주이엔지,박정현,,,,,,,,,,,,,,,,,,,,전남,영암군 삼호읍 용당리 1700,34.7554991,126.3889479,,,,,,,,,0614639200,,614639201.0,,금속 가공제품 제조업; 기계 및 가구 제외,,,25923.0,,일반,,111.0,,,2007.0,10.0,12.0,,,,선박블럭도장 선박블록도장 선박블록도장,,,,2017.0,,5188.0,,,,,,3151.0,,,,,,,,,,,,,,,,,,,,조사모집단통합자료,2022,,
429435,,,,,(유)보담에너지,강성오,,,,,,,,,,,,,,,,,,,,전남,"영암군 삼호읍 동호리1731-1,1732,1733",34.7499521,126.5219308,,,,,,,,,0625123377,,,,"전기, 가스, 증기 및 공기 조절 공급업",,,35119.0,,일반,,,,,2017.0,5.0,1.0,,,,,,,,,,,,,,,,3400.0,,,,,,,,,,,,,,,,,,,,기업체총람,2022,,
423445,,,,,(유)삼보,한웅석,,,,,,,,,,우) 58217,,,,,,,,,,전남,"나주시 빛가람로 679, 401,402호",35.0215119,126.7861495,,,,,,,,,0613368000,,,,부동산업,,,68122.0,,일반,,5.0,,,2012.0,4.0,30.0,,,,부동산 매매,,,,2018.0,,132.0,,,,,,5956.0,,,,,,,,,,,,,,,,,,,,기업체총람,2022,,
429975,,,,,(유)씨페코,박경남,,,,,,,,,,우) 59126,,,,,,,,,,전남,"완도군 완도읍 장보고대로 335, 2층",34.3194811,126.7527786,,,,,,,,,0615543180,,615524582.0,,도매 및 상품 중개업,,,46712.0,,일반,,4.0,,,1998.0,2.0,1.0,,,,유류 유류 유류 도매 석유 도소매,,,,2018.0,,11806.0,,,,,,4455.0,,,,,,,,,,,,,,,,,,,,기업체총람,2022,,
425160,,,,,(유)영진기업,"정광국,정광래",,,,,,,,,,우) 58655,,,,,,,,,,전남,목포시 석현로25번길 10 (석현동),34.8174467,126.42335,,,,,,,,,0612835582,,612812228.0,,육상 운송 및 파이프라인 운송업,,,49231.0,,일반,,105.0,,,1982.0,7.0,12.0,,,,택시운송 택시,,,,2014.0,,2865.0,,,,,,1655.0,,,,,,,,,,,,,,,,,,,,기업체총람,2022,,
432797,,,,,(유)우수전기종합상사,강성오,,,,,,,,,,,,,,,,,,,,전남,순천시 가곡동가곡지구 14블럭 7로트,34.9860286,127.4788222,,,,,,,,,0617418020,,617439359.0,,도매 및 상품 중개업,,,46595.0,,일반,,4.0,,,2005.0,3.0,18.0,,,,전선 전선관 전기용기계장비및관련기자재도매업 전기공사,,,,2020.0,,4895.0,,,,,,2432.0,,,,,,,,,,,,,,,,,,,,조사모집단통합자료,2022,,
429490,,,,,(유)원진산업,김영남,,,,,,,,,,,,,,,,,,,,전남,영암군 삼호읍 용당리 1700번지,34.7554991,126.3889479,,,,,,,,,0614610037,,614611752.0,,기타 운송장비 제조업,,,31114.0,,일반,,140.0,,,2012.0,1.0,1.0,,,,"선박구성부분품 제조,도장공사",,,,2020.0,,7153.0,,,,,,2619.0,,,,,,,,,,,,,,,,,,,,기업체총람,2022,,
432857,,,,,(유)장원,장쌍길,,,,,,,,,,,,,,,,,,,,전남,영암군 삼호읍 용당리 1700,34.7554991,126.3889479,,,,,,,,,0614610014,,614611562.0,,기타 운송장비 제조업,,,31112.0,,일반,,66.0,,,2009.0,2.0,10.0,,,,"합성수지선 건조,수리,해체,선박구성부분품 제조",,,,,,,,,,,,,,,,,,,,,,,,,,,,,,,,조사모집단통합자료,2022,,
429987,,,,,(유)제일물산,최번부,,,,,,,,,,우) 59108,,,,,,,,,,전남,"완도군 완도읍 농공단지3길 5, 11",34.3370427,126.7341481,,,,,,,,,0615542206,,615543119.0,,도매 및 상품 중개업,,,46315.0,,일반,,10.0,,,1994.0,7.0,28.0,,,www.choigozip.com,멸치 미역 다시마 멸치 미역 다시마 맛김 제조업 건어물 도소매업 농수산물 판매업 수산식물 가공 및 저장 처리업,,,,2018.0,,6538.0,,,,,,,,,,,,,,,,,,,,,,,,,,기업체총람,2022,,
429528,,,,,(유)태양,안정석,,,,,,,,,,,,,,,,,,,,전남,영암군 삼호읍 용당리 1700번지,34.7554991,126.3889479,,,,,,,,,0614604031,,614610166.0,,기타 운송장비 제조업,,,31114.0,,일반,,95.0,,,2008.0,8.0,1.0,,,,선박구성부분품 선박구성부분품 선박 구성부분품 제조업,,,,2020.0,,4762.0,,,,,,7188.0,,,,,,,,,,,,,,,,,,,,기업체총람,2022,,
431418,,,,,(유)파워에코,이윤창,,,,,,,,,,우) 59003,,,,,,,,,,전남,"해남군 문내면 무고리1691, 1692, 1693, 1694, 1696",34.6422148,126.2703459,,,,,,,,,0625123377,,,,"전기, 가스, 증기 및 공기 조절 공급업",,,35119.0,,일반,,,,,2013.0,4.0,15.0,,,,"발전,전기",,,,2018.0,,626.0,,,,,,,,,,,,,,,,,,,,,,,,,,기업체총람,2022,,
433025,,,,,(유)한성에스피,한남철,,,,,,,,,,우) 58219,,,,,,,,,,전남,나주시 금천면 월산리 366-1번지,34.9914227,126.7806589,,,,,,,,,0626033181,,626033182.0,,"전기, 가스, 증기 및 공기 조절 공급업",,,35119.0,,일반,,2.0,,,2011.0,11.0,15.0,,,,태양광발전,,,,2020.0,,178.0,,,,,,595.0,,,,,,,,,,,,,,,,,,,,조사모집단통합자료,2022,,
433038,,,,,(유)해룡,정해룡,,,,,,,,,,,,,,,,,,,,전남,영암군 삼호읍 용당리 1700,34.7554991,126.3889479,,,,,,,,,0614625234,,614625233.0,,금속 가공제품 제조업; 기계 및 가구 제외,,,25923.0,,일반,,110.0,,,2008.0,7.0,7.0,,,,선박도장 선박도장,,,,2017.0,,3672.0,,,,,,4275.0,,,,,,,,,,,,,,,,,,,,조사모집단통합자료,2022,,
433047,,,,,(유)해원통발,정병권,,,,,,,,,,우) 58655,,,,,,,,,,전남,목포시 석현로35번길 15,34.817566,126.4246316,,,,,,,,,0612839665,,622839664.0,,기타 운송장비 제조업,,,31114.0,,일반,,5.0,,,1999.0,6.0,21.0,,,www.yooy.co.kr,통발 어구 제조 선박부품 농기구 제조,,,,2015.0,,2349.0,,,,,,1477.0,,,,,,,,,,,,,,,,,,,,조사모집단통합자료,2022,,
425324,,,,,(자)목포대흥상사,성기순,,,,,,,,,,우) 58754,,,,,,,,,,전남,목포시 항동 6번지,34.7836042,126.3849196,,,,,,,,,0612440005,,612430153.0,,수상 운송업,,,50121.0,,일반,,30.0,,,1955.0,12.0,11.0,,,,여객운송 해상여객운송업 내항여객운송,,,,,,,,,,,,,,,,,,,,,,,,,,,,,,,,기업체총람,2022,,
433102,,,,,(자)양원엔지니어링,임대중,,,,,,,,,,우) 58552,,,,,,,,,,전남,"무안군 청계면 영산로 1701-14, 1층",34.911016,126.4283159,,,,,,,,,0622675544,,622679300.0,,"건축 기술, 엔지니어링 및 기타 과학기술 서비스업",,,72120.0,,일반,,34.0,,,1985.0,4.0,13.0,,,,,,,,,,,,,,,,,,,,,,,,,,,,,,,,,,,,조사모집단통합자료,2022,,
425910,,,,,(주)가보이앤씨,송임철,,,,,,,,,,우) 58534,,,,,,,,,,전남,무안군 망운면 조산길 6-5,35.0116086,126.3917089,,,,,,,,,0626720214,,626720219.0,,전문직별 공사업,,,42311.0,,일반,,5.0,,,2013.0,6.0,4.0,,,,"전기공사,소방설비공사,창호공사",,,,2019.0,,2137.0,,,,,,15212.0,,,,,,,,,,,,,,,,,,,,기업체총람,2022,,
431145,,,,,(주)건강스틸,김태환,,,,,,,,,,우) 57125,,,,,,,,,,전남,함평군 월야면 외치길 14-76,35.1736632,126.6671595,,,,,,,,,0627167034,,,,1차 금속 제조업,,,24312.0,,일반,,6.0,,,2016.0,4.0,21.0,,,,,,,,,,,,,,,,,,,,,,,,,,,,,,,,,,,,기업체총람,2022,,
422430,,,,,(주)광성,강석원,,,,,,,,,,,,,,,,,,,,전남,광양시 광양읍 세풍리 율촌제1지방산업단지 2블럭,34.8996486,127.578106,,,,,,,,,07086560531,,7086500266.0,,금속 가공제품 제조업; 기계 및 가구 제외,,,,,일반,,32.0,,,2014.0,3.0,21.0,,,,"철구조물 제조,도장,기계설치 도매",,,,,,,,,,,,773.0,,,,,,,,,,,,,,,,,,,,기업체총람,2022,,
422439,,,,,(주)광양에너지,유새아,,,,,,,,,,,,,,,,,,,,전남,광양시 봉강면 구서리 산14-8번지,35.0428182,127.5706854,,,,,,,,,025929753,,27828376.0,,"전기, 가스, 증기 및 공기 조절 공급업",,,35119.0,,일반,,1.0,,,2017.0,6.0,9.0,,,,,,,,2019.0,,491.0,,,,,,6727.0,,,,,,,,,,,,,,,,,,,,기업체총람,2022,,
423520,,,,,(주)광주기술정보원,문찬주,,,,,,,,,,우) 58217,,,,,,,,,,전남,"나주시 상야3길 8, 227-1호",35.0229241,126.7903709,,,,,,,,,07046336178,,,,출판업,,,58222.0,,일반,,3.0,,,2012.0,2.0,8.0,,,,"정보통신공사,소프트웨어 개발,컴퓨터 도매,광고,홍보대행,교육지원 서비스",,,,,,,,,,,,169.0,,,,,,,,,,,,,,,,,,,,기업체총람,2022,,
